county,station name,name,height(m),easting,northing,latitude,longitude,open year,close year
Antrim,5880,LH_RATHLIN_WEST,10,309200,451800,55.30083,-6.28028,2000,(null)
Carlow,4415,TULLOW (Waterworks),76,284700,173400,52.80528,-6.74306,1985,(null)
Carlow,2414,BORRIS G.S.,85,272400,150700,52.60278,-6.93056,1944,1991
Carlow,1214,CARLOW (SUGAR FACTORY),58,272200,178400,52.85139,-6.92778,1953,1960
Carlow,115,HACKETSTOWN RECTORY,182,297600,180500,52.86667,-6.55,1910,1944
Carlow,4214,CARLOW (AGR.RES.STN.),55,272600,177900,52.84722,-6.92222,1960,1968
Carlow,3614,GRAIGUENAMANAGH,27,271100,143100,52.53472,-6.95139,1951,1998
Carlow,3315,BUNCLODY(CARRICKDUFF)G.S.,61,290500,157000,52.65694,-6.6625,1973,1984
Carlow,3115,TULLOW (HARDYMOUNT HSE.),79,284000,172500,52.79722,-6.75417,1963,1965
Carlow,9914,M.BLACKSTAIRS MTNS.(KNOCKROE),539,282000,149800,52.59306,-6.79028,1950,2000
Carlow,6114,POLLMOUNTY FISH FARM,24,274500,135545,52.46667,-6.90278,1987,(null)
Carlow,2214,LEIGHLINBRIDGE G.S.,56,268900,165200,52.73333,-6.98056,1944,1984
Carlow,514,CARLOW (BROWNE'S HILL),55,275400,175800,52.82778,-6.88056,1866,1959
Carlow,1414,BAGENALSTOWN (FENAGH HSE.),106,277400,161300,52.69722,-6.85556,1866,1986
Carlow,6014,CLASHGANNA MILLS,27,273800,146200,52.5625,-6.91111,1987,1989
Carlow,375,OAK PARK,62,273000,179500,52.86111,-6.91528,2003,(null)
Carlow,5914,BAGENALSTOWN (KILDREENAGH),128,274900,163400,52.71639,-6.89167,1985,2001
Carlow,4515,TULLOW (Ardoyne Glebe),79,288200,169800,52.77194,-6.69333,1985,(null)
Carlow,1014,GLYNN G.S.,50,274400,139100,52.49861,-6.90417,1946,1960
Carlow,5314,BAGENALSTOWN (FENAGH II),104,277700,161500,52.69917,-6.85111,1982,1989
Carlow,4814,CARLOW (Oak Park),61,273000,179500,52.86111,-6.91528,1967,1996
Carlow,7414,BORRIS,86,272508,150661,52.60278,-6.93056,1890,1895
Carlow,6214,BAGENALSTOWN (RATHELLIN),52,270000,163500,52.71806,-6.96389,1990,1993
Carlow,2015,RATHVILLY G.S.,122,288000,181700,52.87917,-6.69306,1949,1988
Carlow,515,TULLOW (MT.ST.JOSEPH'S),79,285800,171800,52.79028,-6.72778,1949,1960
Carlow,2115,HACKETSTOWN (Voc.Sch.),189,297500,179900,52.86111,-6.55278,1949,(null)
Carlow,1815,BALLON G.S.,82,282900,166500,52.74306,-6.77222,1949,1980
Carlow,6914,GARRYHILL (MILLTOWN),107,278600,158700,52.67389,-6.8375,2003,2005
Carlow,2114,CARLOW (TRANS.STN.),55,271300,176700,52.83611,-6.94167,1944,1971
Cavan,9937,M.SWANLINBAR FOREST,183,220700,321700,54.14389,-7.68333,1995,1999
Cavan,2637,COOTEHILL (VOC.SCH.),107,259800,314500,54.07639,-7.08611,1951,1968
Cavan,738,KINGSCOURT G.S.,105,278600,295900,53.90694,-6.80417,1943,1988
Cavan,237,BALLYCONNELL G.S.,55,227400,319000,54.11944,-7.58056,1942,1959
Cavan,2431,BAILIEBORO' G.S.,162,267700,296900,53.91667,-6.96944,1944,1966
Cavan,637,CROSSDONEY (KEVIT CASTLE),64,238200,301200,53.95833,-7.41806,1923,1975
Cavan,631,VIRGINIA (FOR.STN.),96,258100,287800,53.83611,-7.11667,1942,1950
Cavan,2937,BALLINAGH G.S.,93,238900,298400,53.93333,-7.40694,1951,1968
Cavan,1330,FINEA (MAUGHERA HATCHERIES),70,241500,284000,53.80417,-7.36944,1956,1972
Cavan,1437,REDHILLS G.S.,66,244700,317300,54.10278,-7.31667,1942,2000
Cavan,737,BALLYHAISE (AGR.COLL.),67,245200,311600,54.05139,-7.30972,1923,2005
Cavan,3037,SWANLINBAR,69,219400,327500,54.19583,-7.70278,1942,2018
Cavan,1431,MULLAGH G.S.,107,269600,285100,53.81111,-6.94306,1942,1989
Cavan,1337,CAVAN (TRANS.STN.),88,242100,305500,53.99722,-7.35833,1942,1987
Cavan,675,BALLYHAISE,78,245200,311600,54.05139,-7.30972,2003,(null)
Cavan,3131,VIRGINIA G.S.,91,260400,287500,53.83333,-7.08194,1951,1990
Cavan,3631,BAILIEBORO' CASTLE,152,266200,298100,53.92778,-6.99167,1958,1973
Cavan,3437,COOTEHILL (COMP. SCH.),98,261100,313800,54.06944,-7.06667,1968,1969
Cavan,430,BALLYJAMESDUFF G.S.,110,252300,290800,53.86389,-7.20556,1942,1984
Cavan,1737,GOWNA (SALLAGHAN BRIDGE),76,232700,293100,53.88611,-7.50278,1944,1973
Cavan,837,SHERCOCK G.S.,110,272100,305900,53.99722,-6.9,1942,1987
Cavan,4137,CAVAN (Drumconnick),88,239685,305290,53.99556,-7.39556,1984,2019
Cavan,4037,LOUGH GOWNA (GLENBROOK),91,231200,292100,53.87778,-7.525,1973,2009
Cavan,4031,BAILIEBORO (Duneena),158,264460,299820,53.94389,-7.01917,1973,(null)
Cavan,1530,LAVAGH (BALLYHEELAN),90,244100,286700,53.82778,-7.33056,1972,1977
Cavan,4131,BAILIEBORO (Leiter),155,264850,298560,53.9325,-7.01333,1973,(null)
Cavan,437,KILLESHANDRA G.S.,64,231000,307400,54.01528,-7.52778,1951,1959
Cavan,4437,KILNALECK (Omard),119,243600,290000,53.85722,-7.33722,1985,1996
Cavan,4337,CAVAN LORETO COLLEGE,64,241200,307200,54.0125,-7.37167,1985,2011
Cavan,4637,BALLYCONNELL (Mullaghduff),84,228200,317700,54.10722,-7.56889,1985,(null)
Cavan,4537,KILLESHANDRA TOWN LAKE,61,231100,308200,54.02222,-7.52472,1985,2000
Cavan,4837,COOTEHILL (VICARS HILL),91,258500,312000,54.05389,-7.10694,1992,1994
Cavan,337,BLACKLION G.S.,65,208000,338100,54.29167,-7.87778,1942,1961
Cavan,5037,BELTURBET (Naughan),76,236700,320700,54.13389,-7.43889,1993,(null)
Cavan,4937,COOTEHILL (Mountain Lodge),189,258300,303300,53.97583,-7.11194,1993,1993
Cavan,1930,KILNALECK TULLYBOY CROSSERLOUGH,119,246000,288700,53.84611,-7.30139,1987,1989
Cavan,5431,VIRGINIA (MURMOD),122,260600,289100,53.84778,-7.07972,2001,2007
Cavan,5137,ARVA (KILGARVE),76,227700,295300,53.90667,-7.57778,1995,1996
Cavan,537,STRADONE PARK,82,250100,304200,53.98472,-7.23611,1952,1959
Cavan,5637,TULLYCO (Artonagh),140,254260,306235,54.0025,-7.17333,2000,(null)
Cavan,1937,BELTURBET (VOC.SCH.),70,236500,316900,54.1,-7.44167,1944,1989
Cavan,5885,KILCOGY_WWTP,94,238030,287225,53.83333,-7.42306,2019,(null)
Cavan,2037,CUILCAGH MTNS.,290,212990,324125,54.16583,-7.80139,1944,(null)
Cavan,2030,BALLYJAMESDUFF (Kilcully),125,252600,290200,53.85833,-7.20083,1997,(null)
Cavan,5837,KILLESHANDRA (Bawn),72,230000,306900,54.01,-7.54278,2000,2019
Cavan,1037,TULLYVIN G.S.,79,256200,311500,54.05,-7.14167,1942,1983
Cavan,6031,VIRGINIA,94,260855,287605,53.83444,-7.07639,2007,(null)
Cavan,530,FINEA G.S.,68,240100,281400,53.78056,-7.39167,1944,1984
Cavan,6537,TULLYVIN_(Cornabragher),91,256900,311400,54.04861,-7.13111,2012,2013
Cavan,6337,ARVAGH (Cormore),131,230200,295800,53.91056,-7.53972,2010,(null)
Cavan,6637,KILLESHANDRA-Drumroosk,64,231350,305700,53.993,-7.52,2019,(null)
Cavan,6737,CLOVERHILL,62,243135,315105,54.08333,-7.34167,1896,1933
Cavan,7985,Loughan_House,73,205480,337795,54.28889,-7.91667,2020,(null)
Cavan,1137,KILNALECK G.S.,113,244800,290100,53.85833,-7.31944,1942,1986
Cavan,329,GLENGEVLIN G.S.,150,207100,327300,54.19444,-7.89167,1928,1963
Clare,1218,TULLA,57,148865,179955,52.86833,-8.76,1943,(null)
Clare,1217,DOONBEG,12,97700,165600,52.73167,-9.51389,1984,2001
Clare,2519,MOUNTSHANNON G.S.,34,171200,186900,52.93194,-8.42778,1943,1989
Clare,2518,CRUSHEEN (Cloonawillin),46,139960,183120,52.89583,-8.89278,2007,(null)
Clare,2618,CRUSHEEN (Ballinruan),177,144850,187075,52.93194,-8.82083,2014,(null)
Clare,121,NEW QUAY G.S.,7,126800,212500,53.15861,-9.09444,1943,1952
Clare,1317,KILMIHIL (Shyan),96,107980,165270,52.73111,-9.36278,1984,(null)
Clare,117,DOOLIN G.S.,11,107200,196800,53.01389,-9.38333,1943,1952
Clare,717,DOONBEG G.S.,12,97500,165500,52.73056,-9.51806,1951,1982
Clare,2921,LISDOONVARNA (Treatment Plant),80,112140,197810,53.02417,-9.31,2005,(null)
Clare,418,DROMOLAND CASTLE,12,139100,170195,52.77972,-8.90333,1923,(null)
Clare,718,COROFIN,29,128220,189095,52.94806,-9.06861,1943,(null)
Clare,1417,MULLAGH (Carrowlagan),56,105540,172755,52.79778,-9.40111,1984,(null)
Clare,1418,QUIN G.S.,26,141600,174500,52.81806,-8.86667,1951,1987
Clare,417,INAGH (Mt.Callan),122,116600,177415,52.84167,-9.23833,1897,2019
Clare,3385,CARRON,131,127755,198250,53.03028,-9.0775,2019,(null)
Clare,719,FEAKLE FLAGMOUNT,179,157500,192700,52.98333,-8.63333,1940,1943
Clare,1511,KILDYSART G.S.,36,125200,158800,52.675,-9.10556,1943,1985
Clare,1518,CARRON N.S.,125,128100,199100,53.0375,-9.07222,1958,1972
Clare,118,CARRON G.S.,150,127900,198900,53.03611,-9.075,1943,1956
Clare,3511,LABASHEEDA G.S.,9,115500,153100,52.62222,-9.24722,1951,1989
Clare,1517,ENNISTYMON,58,113200,188900,52.94361,-9.29111,1985,1985
Clare,3411,CARRIGAHOLT G.S.,14,84300,151200,52.6,-9.70833,1951,1983
Clare,1521,BALLYVAUGHAN,15,123200,207600,53.11389,-9.14722,1960,1977
Clare,3585,TULLA WTP,29,149065,178575,52.85611,-8.75694,2019,(null)
Clare,4011,ARDNACRUSHA (Gen.Stn.No.2),28,158520,161835,52.70639,-8.61444,1952,(null)
Clare,1621,BALLYVAUGHAN (GRAGAN WEST),216,119800,202400,53.06667,-9.19722,1968,1970
Clare,819,TUAMGRANEY (RAHEEN HSE.),51,165600,183000,52.89722,-8.51111,1924,1964
Clare,818,CRUSHEEN G.S.,34,139500,187900,52.93889,-8.9,1943,1990
Clare,817,LAHINCH G.S.,8,109600,187600,52.93194,-9.34444,1951,1984
Clare,221,FANORE G.S.,34,114700,208700,53.12222,-9.275,1952,1962
Clare,3911,KILRUSH (DIST.HOSP.),24,99600,155500,52.64167,-9.48333,1952,1974
Clare,1618,BALLYVAUGHAN (CORKSCREW HILL),204,119700,201700,53.05972,-9.19722,1961,1979
Clare,1617,LISDOONVARNA (CAHERMACNAGHTEN),175,119600,199900,53.04361,-9.19861,1985,2005
Clare,1611,SIXMILEBRIDGE G.S.,14,147700,165900,52.74167,-8.775,1943,1972
Clare,3785,INAGH (Mount Callan),107,116605,177420,52.84167,-9.23833,2019,(null)
Clare,1721,BALLYVAUGHAN (GREGAN'S CASTLE),64,120700,203500,53.07639,-9.18333,1968,1969
Clare,1718,CARRON,145,127780,198525,53.03278,-9.07722,1974,2019
Clare,1717,ENNISTYMON (Ballymacraven),57,113945,190220,52.95611,-9.28111,1987,2001
Clare,1711,BROADFORD G.S.,34,157300,172900,52.80556,-8.63333,1943,1964
Clare,911,KNOCK G.S.,9,109700,153800,52.62778,-9.33333,1943,1961
Clare,4519,SCARIFF G.S.,46,163900,184000,52.90556,-8.53611,1951,1999
Clare,1818,KILMALEY A.F.T.,98,121500,175900,52.82833,-9.16528,1983,2010
Clare,1817,QUILTY (SEAFIELD),9,100500,174100,52.80889,-9.47556,1992,1999
Clare,918,KILFENORA G.S.,65,118100,193800,52.98889,-9.21944,1943,1969
Clare,917,CONNOLLY G.S.,94,120400,176000,52.82917,-9.18056,1951,1965
Clare,517,KILKEE G.S.,11,89000,160100,52.68056,-9.64167,1943,2013
Clare,317,QUILTY G.S.,15,101900,174800,52.81528,-9.45556,1951,1961
Clare,5119,KILLALOE O.P.W.,40,170400,172700,52.80417,-8.43889,1957,1983
Clare,5211,KILRUSH BALLYNOTE WEST,27,100500,153800,52.62611,-9.47,1984,2000
Clare,5311,MONEYPOINT E.S.B.,20,103065,152070,52.61167,-9.43167,1986,2020
Clare,1918,NEWMARKET-ON-FERGUS LATOON,15,138000,171100,52.78778,-8.91972,1984,1999
Clare,518,SHANNON AIRPORT,15,137900,160300,52.69028,-8.91806,1937,(null)
Clare,1917,DOONBEG (MCGRATH'S POINT),11,96900,166900,52.74361,-9.52694,1999,2000
Clare,5519,TUAMGRANEY (RAHEEN NURSERIES),82,165800,182400,52.89167,-8.50833,1960,1960
Clare,218,ENNIS CAPPALEA,113,127000,177000,52.83889,-9.08333,1945,1953
Clare,5480,LH_LOOP_HEAD,70,69000,147300,52.56111,-9.93222,2000,(null)
Clare,1017,KILMIHIL (VOC.SCH.),79,110700,164600,52.725,-9.32222,1966,1969
Clare,2017,QUILTY,15,101580,174770,52.81528,-9.46056,1999,(null)
Clare,1018,LISACASEY G.S.,81,122200,166500,52.74444,-9.15278,1943,1988
Clare,5911,CRAGGAUNOWEN,61,146685,173435,52.80972,-8.79139,1993,2020
Clare,6019,KILLALOE DOCKS,40,169785,173265,52.81,-8.44889,1983,(null)
Clare,2118,CRUSHEEN (CAHERPHUCA),37,139200,187500,52.93472,-8.905,1993,2006
Clare,2117,KILKEE (Moveen),30,85930,155935,52.64306,-9.68583,2013,2019
Clare,1118,ENNIS GORTNAGANNIV,67,127200,174800,52.81944,-9.08056,1943,1962
Clare,6611,KILBANE (Clongaheen),61,160830,172980,52.80667,-8.58167,2014,(null)
Clare,6811,BROADFORD (HURDLESTOWN),51,157220,172734,52.804173,-8.635134,1900,1936
Clare,6711,KILDYSART (Cappanavarnogue),36,124440,157055,52.65972,-9.1175,2014,(null)
Clare,6819,SCARRIFF (Fossabeg),50,163685,185030,52.91528,-8.54056,1999,(null)
Clare,7011,LOOPHEAD-Kilbaha_Sth,59,70560,147645,52.559,-9.906,2020,(null)
Clare,2218,NEWMARKET-ON-FERGUS (Langough),30,139780,169680,52.77528,-8.89306,2001,2017
Clare,2217,ENNISTYMON (Deerpark),46,113525,188470,52.94028,-9.28694,2001,(null)
Clare,1117,DOO-LOUGH,84,110720,173015,52.80111,-9.32444,1982,(null)
Clare,217,COORACLARE G.S.,29,103900,162500,52.70556,-9.42222,1943,1956
Clare,2321,BALLYVAUGHAN (Ballyconry),23,121735,208555,53.12222,-9.16972,1984,2018
Clare,617,MILTOWN MALBAY G.S.,55,106100,179800,52.86111,-9.39444,1943,1984
Clare,2318,CORROFIN (Soheen),61,128490,184060,52.90306,-9.06333,2001,(null)
Clare,618,ENNIS G.S.,6,133900,177800,52.84722,-8.98056,1943,1985
Clare,318,ENNIS KNOCKATUNNA,128,124900,171800,52.79167,-9.11389,1945,1953
Clare,2317,ENNISTYMON HOUSE,11,112838,188594,52.94132,-9.297396,1900,1919
Clare,2418,DROMOLAND GOLF CLUB,72,139400,170500,52.78222,-8.89806,2005,2010
Clare,9917,M.MOUNT CALLAN I,343,114800,177500,52.84167,-9.26528,1982,2002
Clare,2419,FEAKLE G.S.,98,156100,186200,52.925,-8.65278,1943,1970
Cork,102,KINSALE (Nohoval Rectory),54,172400,51700,51.71667,-8.4,1940,1945
Cork,10006,MITCHELSTOWN CASTLE,104,180849,113177,52.27027,-8.28129,1900,1924
Cork,2501,BANTRY (Maulikeeve),156,105795,54450,51.735,-9.36444,2015,(null)
Cork,2485,BALLINCURRIG (Peafield),161,186285,84265,52.01083,-8.20056,2019,(null)
Cork,2504,BALLINAGREE (HORSEMOUNT),162,135400,79800,51.96667,-8.94028,1948,1977
Cork,2502,KILBRITTAIN G.S.,32,152300,47000,51.67361,-8.69028,1950,2012
Cork,2506,RATHCORMAC G.S.,55,180600,91600,52.07639,-8.28333,1944,1995
Cork,2601,BANTRY (Deerpark House),35,98110,47640,51.67,-9.471,2019,(null)
Cork,2585,CLONAKILTY (Agri College),46,141110,41785,51.62611,-8.85111,2019,(null)
Cork,2604,BALLYVOURNEY (Clountycarty),152,121000,71500,51.89028,-9.14722,1948,2017
Cork,2602,BALLINEEN G.S.,46,134500,54000,51.73472,-8.94861,1950,1987
Cork,1303,EYERIES G.S.,47,65000,50300,51.68889,-9.95278,1950,1970
Cork,2606,FERMOY G.S.,31,181000,98400,52.1375,-8.27778,1944,1980
Cork,1302,SCHULL G.S.,3,93000,31700,51.52778,-9.54167,1948,1985
Cork,1301,KEALKILL(MAUGHANACLEA),152,109500,57000,51.75833,-9.31111,1978,1990
Cork,1304,CORK (UNIV.COLL.FARM),23,163800,69600,51.87778,-8.52639,1940,1982
Cork,404,CORK (ROCHELLE SCHOOLS),15,167100,69300,51.875,-8.47778,1936,1959
Cork,2702,CLONAKILTY G.S.,18,138500,41800,51.625,-8.8875,1950,1964
Cork,101,BANTRY(The Old Rectory),61,98600,48900,51.68333,-9.21667,1936,1940
Cork,2685,INISHCARRA WTP,110,153925,72585,51.90417,-8.67028,2019,(null)
Cork,1306,NEWMARKET G.S.,157,131800,107400,52.21389,-8.99722,1944,1986
Cork,2711,RATHLUIRC (TRANS.STN.),114,153400,121900,52.34722,-8.68333,1944,1969
Cork,2704,GOUGANEBARRA,183,109500,66000,51.83889,-9.31389,1948,2009
Cork,401,BANTRY (DRUMCLUGH),146,106300,51800,51.71111,-9.35556,1948,1952
Cork,2706,KILWORTH G.S.,69,182900,102800,52.17639,-8.25,1944,1975
Cork,702,CASTLETOWNSHEND (SEAFIELD),12,119100,31800,51.53333,-9.16667,1914,1943
Cork,701,KILCROHANE G.S.,40,81900,37800,51.58056,-9.70417,1950,1960
Cork,2804,DONOUGHMORE,200,149200,82100,51.98889,-8.73889,1948,2020
Cork,2802,KINSALE (Voc.Sch.),30,163475,50450,51.70583,-8.52917,1952,(null)
Cork,406,RATHCOOLE G.S.,99,133100,94100,52.09444,-8.97639,1944,1956
Cork,2785,DUNMANWAY WWTP,59,124010,52590,51.72111,-9.10028,2019,(null)
Cork,704,MIDLETON S.W.S.,11,185900,72500,51.90417,-8.20556,1946,1955
Cork,706,MALLOW (Hazelwood),94,155600,104500,52.19028,-8.65,1925,(null)
Cork,2906,MALLOW (SUGAR FACTORY),52,151900,97400,52.12639,-8.70278,1950,1985
Cork,2902,DRINAGH (CO-OP.LTD.),91,119800,44200,51.64444,-9.15833,1962,1972
Cork,2904,BALLINAGREE (Mushera),351,135700,85500,52.01806,-8.93611,1948,2005
Cork,1402,DUNMANWAY G.S.,61,123300,52800,51.72222,-9.10972,1948,1997
Cork,1401,CASTLETOWNBERE (SOUTH DRUM),20,66900,45000,51.64167,-9.92306,1981,1982
Cork,1406,KANTURK (Voc.Sch.),104,138400,103300,52.17778,-8.9,1944,2020
Cork,1404,CROOKSTOWN G.S.,61,144200,67300,51.85556,-8.80972,1942,1990
Cork,3004,BALLINGEARY (Voc.Sch.),91,115000,67100,51.85,-9.23333,1948,(null)
Cork,3002,CAPE CLEAR,9,95300,22100,51.44167,-9.50556,1963,1963
Cork,3104,CLOYNE G.S.,26,191500,67800,51.8625,-8.12361,1950,1988
Cork,3102,KINSALE (ST.JOSEPH,S CONVENT),43,163700,50100,51.70139,-8.52639,1963
Cork,3210,ROCKCHAPEL,259,122800,116000,52.29,-9.13194,2010,(null)
Cork,3185,MALLOW (Hazelwood),110,155425,104465,52.19056,-8.6525,2019,(null)
Cork,3204,CARRIGALINE G.S.,6,173000,62600,51.81528,-8.39167,1950,1994
Cork,3202,SKIBBEREEN (VOC.SCH.),24,112400,33900,51.55139,-9.2625,1964,1980
Cork,3304,PASSAGE WEST G.S.,6,177200,68200,51.86528,-8.33056,1950,1994
Cork,3302,CLONAKILTY (DUNOWEN HSE.),55,137200,34000,51.55556,-8.90556,1969,1971
Cork,1502,BANDON (VOC.SCH.),34,149000,55500,51.75,-8.73889,1948,1972
Cork,1501,CASTLETOWNBERE SOUTHDROUM II,27,67000,45000,51.64167,-9.92083,1982,2006
Cork,1504,RATHDUFF G.S.,138,159800,84800,52.01389,-8.58611,1942,2013
Cork,3402,SHERKIN ISLAND,20,100820,25760,51.47639,-9.42833,1972,(null)
Cork,1506,MEELIN G.S.,238,129700,113000,52.26389,-9.02917,1944,1979
Cork,3404,GLANMIRE (NORTHESK),5,173800,72500,51.90417,-8.38056,1952,1960
Cork,804,FARMER'S CROSS (CORK APT.SITE),165,166700,66200,51.84722,-8.48333,1959,1962
Cork,775,SherkinIsland,21,100781,25801,51.47639,-9.42778,2004,(null)
Cork,802,CLONAKILTY (SHANNON VALE),41,138900,44500,51.65,-8.88333,1957,1966
Cork,3504,CROSSHAVEN G.S.,6,179000,61200,51.80278,-8.30417,1952,1993
Cork,3502,KINSALE (RATHBEG),52,163700,51200,51.7125,-8.525,1974,1989
Cork,3506,MILLSTREET G.S.,126,127200,90300,52.05972,-9.06111,1952,1974
Cork,801,DURRUS G.S.,9,94500,41900,51.61944,-9.52361,1950,1987
Cork,3611,MILFORD G.S.,140,141000,120700,52.33472,-8.86528,1951,1987
Cork,3602,LOUGH HYNE,24,109800,29000,51.50694,-9.3,1976,1977
Cork,806,MILLSTREET CONVENT,126,126700,90300,52.05972,-9.06944,1936,1988
Cork,3606,FERMOY (Moore Park),55,181900,101400,52.16389,-8.26389,1961,2010
Cork,3604,CARRIGADROHID (Gen.Stn.),65,140640,71950,51.89722,-8.86306,1953,(null)
Cork,3704,INISHCARRA (GEN.STN.),24,154500,72200,51.9,-8.66111,1954,(null)
Cork,3702,CASTLETOWNSHEND (THE ROCKET HOUS,8,118500,30900,51.525,-9.17417,1981,2000
Cork,3706,RATHLUIRC (FOR.STN.),131,157300,118500,52.31667,-8.62639,1962,2012
Cork,1606,BUTTEVANT G.S.,96,154100,108700,52.22778,-8.67222,1944,2002
Cork,1601,KILCROHANE (ROSSKERRIG),49,84700,38400,51.58611,-9.66306,1984,1987
Cork,1604,MACROOM G.S.,75,133700,73200,51.90694,-8.96389,1942,1996
Cork,1602,DRIMOLEAGUE G.S.,61,112500,45800,51.65833,-9.26528,1948,1990
Cork,3804,MACROOM (Renaniree),198,120100,72600,51.9,-9.16111,1959,(null)
Cork,3802,INNISHANNONN (SKEVENISH),91,153900,59000,51.78139,-8.66806,1981,1985
Cork,3806,YOUGHAL (ST.RAPHAEL'S HOSP.),70,210100,77500,51.95,-7.85278,1963,2012
Cork,3904,CORK AIRPORT,155,166500,66200,51.84722,-8.48611,1961,(null)
Cork,3902,SCHULL WHITE CASTLE COTTAGE,59,95000,31400,51.52528,-9.51306,1982,2007
Cork,3906,BALLYDESMOND (EAST) G.S.,207,116000,103600,52.17778,-9.22778,1964,1967
Cork,4004,SHANAGARRY (IMOKILLY ORCHARDS),15,198100,67300,51.85833,-8.02778,1966,1972
Cork,4002,BALLINEEN,46,134300,54000,51.73417,-8.95139,1985,2012
Cork,4104,CARRIGNAVAR COLL.,107,167700,81300,51.98333,-8.47083,1966,1973
Cork,4102,BANDON (COOLFADDA),94,148100,55400,51.74833,-8.75167,1985,2000
Cork,1702,BALLYDEHOB G.S.,20,98700,35100,51.55972,-9.46111,1948,1985
Cork,504,DOUGLAS RECTORY,30,170200,68400,51.86667,-8.43333,1941,1949
Cork,4204,CORK (Clover Hill),20,171100,70400,51.88472,-8.41944,1975,2014
Cork,304,CLOYNE (THE DEANERY),24,191800,66900,51.85417,-8.11944,1935,1951
Cork,4202,ROSSCARBERY (Froe),37,128320,38460,51.59472,-9.035,1985,(null)
Cork,1701,GLENGARRIFF (ROSSDOON),6,93500,56400,51.75,-9.54306,1990,2008
Cork,4206,YOUGHAL (SERVICE RESERVOIR),79,209400,78000,51.95417,-7.86389,1944,1962
Cork,1704,BALLYVOURNEY G.S.,129,119700,77700,51.94583,-9.16806,1942,1985
Cork,4304,MIDLETON (TEMPLENACARRIGA),110,186700,78900,51.9625,-8.19306,1976,1993
Cork,4302,SKIBEREEN (WaterTreatmentPlant),12,111990,36460,51.57444,-9.27028,1988,(null)
Cork,1706,DONERAILE G.S.,79,160000,107200,52.21528,-8.58472,1944,1985
Cork,4406,KILDORRERY G.S.,94,170800,110400,52.24444,-8.42778,1944,1962
Cork,4402,BALLINTRIDEEN,91,169200,57100,51.76583,-8.44583,1994,2005
Cork,502,BANDON (FLORAVILLE),64,148200,55600,51.75,-8.75,1940,1948
Cork,4404,BALLYMACODA (Mountcotton),64,205500,69900,51.88194,-7.92083,1976,(null)
Cork,501,BANTRY (GLANCREAGH),174,107900,52700,51.71944,-9.33333,1954,1957
Cork,4506,MITCHELSTOWN CONVENT,119,181900,112600,52.26528,-8.26528,1968,1981
Cork,302,COOLKELURE HOUSE,158,117800,53300,51.72639,-9.19028,1948,1948
Cork,4504,CARRIGTUOHILL (TIBBOTSTOWN),119,181100,76300,51.93889,-8.275,1976,1979
Cork,902,GLANDORE RECTORY,46,122000,35300,51.56528,-9.125,1946,1949
Cork,4502,DRIMOLEAGUE (Angram),50,110550,44075,51.6425,-9.29278,1994,(null)
Cork,901,KEALKIL G.S.,61,104500,55400,51.74306,-9.38333,1950,1969
Cork,4604,CASTLEMARTYR (Dower Br.),6,198000,72900,51.90833,-8.02917,1976,1985
Cork,4602,BALLINEEN (Carbery),42,132510,53585,51.73111,-8.9775,1995,(null)
Cork,1806,MITCHELSTOWN G.S.,105,181600,112500,52.26389,-8.26944,1944,1979
Cork,904,CORK (UNIV.COLL.),17,166300,71300,51.89306,-8.49028,1862,1994
Cork,301,BANTRY (VOC.SCH.),5,99600,48600,51.68056,-9.45139,1941,1973
Cork,4704,CLOYNE (BALLYMACANDRICK),64,190400,64300,51.83056,-8.13889,1976,1990
Cork,4702,LISHEEN,40,103530,31055,51.52444,-9.39083,1997,2016
Cork,1804,TARELTON G.S.,155,132300,65800,51.84028,-8.98194,1942,1992
Cork,1801,BANTRY (DROMLEIGH),67,99800,47800,51.67389,-9.44917,1992,1996
Cork,1802,CLONAKILTY (Agri.Coll.),79,141395,42310,51.63083,-8.84722,1948,1994
Cork,4802,GOLEEN,48,81850,29510,51.50639,-9.7025,1997,(null)
Cork,4806,FERMOY (COOLNAKILLA),213,176400,94900,52.10556,-8.34444,1978,1992
Cork,4804,DUNGOURNEY (Ballyeightragh),157,194800,83100,52.0,-8.075,1976,2011
Cork,4906,CONNA (Carrigeen Hill),70,195500,95500,52.11111,-8.06528,1981,2002
Cork,4904,KILLEAGH (Monabraher),98,201000,80600,51.97778,-7.98611,1976,(null)
Cork,4902,DUNMANWAY (Demesne),78,123720,53350,51.72778,-9.10472,1998,(null)
Cork,201,GLENGARRIFF (Ilnacullin),7,93200,54700,51.73472,-9.54583,1914,(null)
Cork,5006,ARAGLEN TROUT FARM,91,190800,105500,52.20111,-8.13444,1981,1982
Cork,5002,BALLINEEN (Caherkirky),165,131800,49115,51.69083,-8.98694,1999,(null)
Cork,5004,SHANAGARRY NORTH,27,197600,67500,51.85972,-8.03472,1976,(null)
Cork,5106,BALLYDINEEN DONERAILE,143,159900,105200,52.19722,-8.58611,1982,1984
Cork,5080,LH_FASTNET,10,88400,16400,51.38944,-9.60306,2000,(null)
Cork,202,KINSALE (Walton Court),15,169900,49800,51.7,-8.43611,1945,1951
Cork,5104,CORK (Fota Island),14,179200,71400,51.89444,-8.30278,1977,1990
Cork,5102,BANDON (Hillview),67,149300,54700,51.7425,-8.73417,1999,2010
Cork,1902,TIMOLEAGUE G.S.,12,147000,43500,51.64167,-8.76528,1948,1991
Cork,106,KANTURK (Castlecor),107,148400,106200,52.20556,-8.75417,1936,1958
Cork,5204,MACROOM (Curraleigh),229,126300,80700,51.97361,-9.07222,1977,(null)
Cork,1904,COACHFORD G.S.,68,145500,73200,51.90833,-8.79167,1942,1991
Cork,1901,COOMCLOGH,240,112595,58085,51.76889,-9.26694,1993,(null)
Cork,5202,CLONAKILTY (Castleview),38,142865,44200,51.64806,-8.82611,1999,2018
Cork,5180,LH_ROCHES_POINT,27,182400,60100,51.79306,-8.25472,2000,(null)
Cork,5206,NEWMARKET BALLINATONA P.H.,192,128400,112300,52.25778,-9.04917,1982,(null)
Cork,5302,DUNMANWAY (KEELARAHEEN),137,122100,57300,51.76306,-9.12833,2000,2010
Cork,5304,BALLINACURRA NO.2,17,188900,71500,51.89556,-8.16194,1984,2002
Cork,1006,BALLYDESMOND G.S.,198,115200,103900,52.18056,-9.24028,1941,1964
Cork,1001,CASTLETOWNBERE G.S.,5,67600,45900,51.65,-9.9125,1952,1998
Cork,5404,CORK MONTENOTTE,94,169300,72600,51.90472,-8.44639,1984,(null)
Cork,5402,BELGOOLY,38,165785,53425,51.73278,-8.49583,2004,(null)
Cork,1004,ROCHES POINT,43,183100,60100,51.79306,-8.24444,1873,2008
Cork,1002,INNISHANNON G.S.,8,154700,57000,51.76389,-8.65556,1950,1962
Cork,5502,BANDON WATERWORKS,105,143995,55510,51.74972,-8.81167,2010,(null)
Cork,5511,MILFORD G.S. II,107,141700,121500,52.34222,-8.85611,1987,2000
Cork,5504,CORK (Douglas),50,170800,69400,51.87583,-8.42472,1984,2014
Cork,5606,KILDORRERY,107,171300,110600,52.24611,-8.42028,1984,1994
Cork,5604,UPTON,64,154100,59500,51.78583,-8.66583,1984,1986
Cork,5602,BANDON (The Gully),60,147895,54580,51.74167,-8.755,2012,2018
Cork,2002,SKIBBEREEN G.S.,9,112500,33500,51.54722,-9.26111,1949,1964
Cork,2001,KEALKILL EAST,73,105900,56200,51.75,-9.36222,1993,2008
Cork,2006,BALLYNOE G.S.,97,193100,89700,52.05972,-8.1,1944,1996
Cork,5706,CASTLEMAGNER,98,142500,103800,52.18306,-8.84083,1984,2018
Cork,2004,MACROOM (GLENDAV FOREST),287,123300,80400,51.97083,-9.11667,1942,1974
Cork,5704,AHERLAMORE,122,150000,66600,51.84917,-8.72611,1985,(null)
Cork,5702,BALLINSPITTLE (Kilkerran),100,158895,47685,51.68056,-8.595,2012,(null)
Cork,5804,WATERGRASSHILL (Tinageragh),182,176000,84675,52.01417,-8.35028,1988,(null)
Cork,5802,BANDON (Killountain),73,146045,54330,51.73917,-8.78167,2018,2019
Cork,5785,GLENGARRIFF_Ilnacullin,10,93335,54840,51.73639,-9.54472,2020,(null)
Cork,5806,FREEMOUNT PUMPING STATION,137,139300,113900,52.27361,-8.88889,1984,(null)
Cork,5902,CAHERAGH,30,110120,42183,51.62556,-9.29861,1910,1935
Cork,5906,BOHERBOE,183,125000,102700,52.17111,-9.09639,1985,1990
Cork,5904,CORK (FOTA ISLAND) II,12,180000,72000,51.9,-8.29028,1990,1998
Cork,6002,CLONAKILTY (SHANNON VALE),41,138911,44474,51.65,-8.88333,1910,1931
Cork,6004,CARRIGALINE-Kilnagleary,24,174000,61600,51.80611,-8.37639,1992,2019
Cork,306,ARAGLEN G.S.,94,192700,106100,52.20694,-8.10694,1944,1958
Cork,6106,CASTLETOWNROCHE (NAGLESBOROUGH),67,167400,103400,52.18139,-8.47694,1985,1986
Cork,6102,DUNMANWAY,62,123326,52723,51.72222,-9.11028,1905,1937
Cork,2101,BANTRY (Rooska),30,92400,45200,51.64917,-9.555,1994,1996
Cork,6104,MUSKERRY (GOLF CLUB),46,158000,74300,51.91944,-8.61028,1995,(null)
Cork,6206,LOMBARDSTOWN (Drompeach),134,146300,94200,52.09694,-8.78389,1985,2019
Cork,6204,BALLINCURRIG_(Peafield),158,186285,84265,52.01083,-8.20056,1995,(null)
Cork,2104,CASTLEMARTYR G.S.,14,196100,73200,51.91111,-8.05694,1944,1965
Cork,2102,BALLINSPITTLE G.S.,15,158700,46200,51.66667,-8.59722,1949,1995
Cork,6306,BANTEER LYRE,267,141500,92500,52.08139,-8.85306,1985,(null)
Cork,6304,CLOYNE (LISANLEY),55,190600,67100,51.85611,-8.13611,1996,(null)
Cork,6404,COOLEA (MILLEENS),198,114400,76500,51.93417,-9.24417,1999,2009
Cork,1101,BANTRY (ARDNAGASHEL),16,98100,52900,51.71944,-9.475,1953,1989
Cork,6485,YOUGHAL_WWTP,0,209910,79125,51.964657,-7.8565426,2021,(null)
Cork,1104,BALLINACURRA,7,188500,72000,51.9,-8.16667,1904,1984
Cork,6504,LITTLE ISLAND,15,175600,73700,51.915,-8.35472,1999,(null)
Cork,1075,ROCHES POINT,40,182779,60625,51.79306,-8.24444,2004,(null)
Cork,6604,FOTA ISLAND (GOLF CLUB),15,179600,71800,51.89778,-8.29667,1999,(null)
Cork,602,CASTLETOWNSHEND (GLENBARRAHANE),30,119100,31800,51.53333,-9.16667,1892,1943
Cork,6585,Millstreet_Drishane_Castle,100,127460,91020,52.06694,-9.05861,2020,(null)
Cork,6506,MILLSTREET SEWAGE WORKS,101,127500,91000,52.06611,-9.05778,1986,(null)
Cork,6606,MALLOW (SEWAGE TREATMENT WORKS),55,157600,98000,52.13222,-8.62,1988,2012
Cork,6706,MITCHELSTOWN (CORRACUNNA),110,182700,114300,52.28028,-8.25306,1988,1988
Cork,6704,CASTLEMARTYR (KILLAMUCKY),18,195300,73900,51.91722,-8.06806,2000,2004
Cork,601,CASTLETOWNBERE (FILANE WEST),168,71500,47800,51.66806,-9.85694,1948,2003
Cork,1102,CASTLETOWNSHEND G.S.,40,118500,31200,51.52778,-9.175,1950,1960
Cork,6806,ARAGLEN TROUT FARM II,73,190500,105300,52.19972,-8.13833,1988,1991
Cork,6804,ROSTELLAN,15,187500,65400,51.84111,-8.18111,2003,2003
Cork,6906,MILLSTREET (Coomlogane),113,126000,90900,52.06528,-9.07917,1991,(null)
Cork,6904,MIDLETON (KILVA),72,189800,69300,51.87556,-8.14778,2005,2006
Cork,575,MOORE PARK,46,181900,101400,52.16389,-8.26389,2003,(null)
Cork,7004,LADYSBRIDGE-Parknahyla,70,196500,70300,51.88528,-8.05028,2009,2016
Cork,7104,GERNAPEKA,152,110360,65930,51.83889,-9.30139,2009,(null)
Cork,2206,BANTEER G.S.,75,139100,98000,52.13056,-8.88889,1944,1970
Cork,2202,DRINAGH G.S.,114,120100,44500,51.64722,-9.15417,1949,1970
Cork,7006,BARTLEMY,98,181900,87600,52.04028,-8.26444,1992,(null)
Cork,2201,BANTRY (Shandrum),80,102070,52175,51.71389,-9.4175,1999,(null)
Cork,7206,GLENVILLE (GLENASACK),201,167600,91900,52.07861,-8.47278,1993,1997
Cork,7204,MACROOM (Cahirbaroule),206,136100,78000,51.95083,-8.92917,2013,(null)
Cork,2204,CARRIGNAVAR G.S.,116,167200,82000,51.98889,-8.47778,1944,1966
Cork,7306,NEWMARKET (New Street),152,131600,107500,52.21528,-9.00139,1993,(null)
Cork,7304,KILLEAGH_Mogeely,39,198135,76630,51.94222,-8.02778,2014,(null)
Cork,104,BALLINHASSIG RECTORY,73,163200,62800,51.81667,-8.53333,1941,1943
Cork,604,MIDLETON RECTORY,11,188500,73800,51.91667,-8.16667,1943,1946
Cork,7404,UCC,10,166597,71978,51.89972,-8.48611,2015,(null)
Cork,7406,MALLOW_(SpaHouse),61,156500,98700,52.13889,-8.635,1996,(null)
Cork,7604,MACROOM (Kilnamartyra),165,122365,72330,51.89833,-9.12861,2017,(null)
Cork,7504,CASTLEMARTYR-Dower_Pumphouse,10,197955,72925,51.90889,-8.03056,2016,2019
Cork,7506,BANTEER (GLENSOUTH),161,142500,92600,52.08278,-8.83889,1997,2015
Cork,7906,BALLYHOOLY (CASTLEBLAGH),140,171900,97600,52.12944,-8.40972,2001,(null)
Cork,7904,LOTA LODGE NO.1,61,172386,72677,51.90611,-8.40194,1909,1937
Cork,7704,CORK (PARK VIEW),37,168351,72392,51.90333,-8.46056,1910,1937
Cork,7806,MITCHELSTOWMN (CORK STREET),91,181700,112800,52.26667,-8.26778,2000,2009
Cork,7804,CORK (THE PALACE),12,166967,71412,51.89444,-8.48056,1895,1911
Cork,8004,LOTA LODGE NO.2,30,172386,72677,51.90611,-8.40194,1911,1925
Cork,8206,MITCHELSTOWN (Glenatluckey),168,183000,109700,52.23889,-8.24861,2001,(null)
Cork,8204,BALLINGEARY_Tooreenduff,104,113310,65765,51.836,-9.255,2021,(null)
Cork,8104,QUEENS COLLEGE CORK,20,166297,71231,51.89278,-8.49028,1866,1907
Cork,8606,CASTLELYONS (BALLYMACSIMON),72,189400,89900,52.06083,-8.155,2005,(null)
Cork,8306,SHANBALLYMORE,75,167200,107600,52.21889,-8.48056,2002,2010
Cork,2302,LEAP G.S.,32,121400,37200,51.58194,-9.13472,1949,1970
Cork,2306,GLANTAINE G.S.,94,148800,95000,52.10417,-8.74722,1944,1984
Cork,2301,BANTRY (Donemark),24,100400,50700,51.7,-9.44028,2002,2007
Cork,8406,CONNA (CASTLEVIEW),30,195600,94500,52.10278,-8.06389,2003,(null)
Cork,2304,BALLINCURRIG G.S.,92,184500,81700,51.9875,-8.225,1944,1969
Cork,8806,LOMBARDSTOWN-Gortmore,128,144300,95600,52.11,-8.81278,2008,(null)
Cork,8706,KILWORTH (Kilally),108,182300,104000,52.18778,-8.25833,2008,(null)
Cork,8906,MUSHERA,300,131315,86540,52.02722,-9.00139,2010,(null)
Cork,9006,Charleville_Golf_Club,130,151300,121500,52.34306,-8.71472,2010,(null)
Cork,9206,Mallow(Lavally_Lower),145,159281,97560,52.12889,-8.59528,2013,2016
Cork,9704,M.BALLINGEARY (Tooreenaneen),323,113100,64500,51.82639,-9.26111,1948,(null)
Cork,2402,DUNMANWAY (INCHANADREEN),125,119400,54500,51.7375,-9.16667,1950,1995
Cork,1202,KINSALE (SCILLY HSE.),19,163900,50600,51.70694,-8.52222,1921,1966
Cork,1201,BANTRY (ST.JOSEPH'S HOSP.),46,100100,49000,51.68472,-9.44444,1974,1990
Cork,210,ROCKCHAPEL G.S.,198,121700,115900,52.28889,-9.14722,1941,1954
Cork,9702,M.COOLKELURE (DROMDRASDIL),232,117300,54300,51.73472,-9.19722,1948,1949
Cork,9602,M.CAPE CLEAR BIRD OBSERVATIONS,15,95300,21900,51.44028,-9.50583,1985,1988
Cork,9306,MALLOW-Racecourse,53,153130,97550,52.12833,-8.685,2013,2018
Cork,2401,BANTRY (Letterlickey),91,100100,43500,51.63556,-9.44306,2009,2012
Cork,9606,MALLOW (LONGUEVILLE),98,149344,98576,52.13722,-8.74056,1896,1937
Cork,9604,M.BALLINGEARY (Meelin Mtn.),341,114000,71600,51.89028,-9.25,1948,(null)
Cork,1203,ALLIHIES G.S.,58,58700,45400,51.64306,-10.04167,1950,1969
Cork,1204,SHANAGARRY (KINOITH),24,197700,67300,51.85833,-8.03333,1910,1964
Cork,9806,MALLOW (SUMMERHILL),80,156351,97211,52.12556,-8.63806,1896,1921
Cork,9706,MALLOW (OLD DRAMORE),89,155653,93662,52.09361,-8.64778,1890,1895
Cork,2404,WATERGRASSHILL,184,176400,84400,52.01111,-8.34444,1946,1988
Cork,2410,ROCKCHAPEL (Cappaphaudeen),256,116000,110800,52.24278,-9.23056,1982,2009
Cork,1206,BOHERBUE G.S.,201,126600,101300,52.15833,-9.07222,1944,1972
Cork,9804,M.BALLYVOURNEY (Knockacommeen),415,116000,80700,51.97222,-9.22222,1948,(null)
Cork,9802,M.COOLKELURE (PIG'S HILL),320,115700,52000,51.71389,-9.21944,1948,1949
Cork,2406,GLENVILLE G.S.,152,170900,88100,52.04444,-8.42361,1944,1996
Cork,9904,M.INCHIGEELAGH (Pipe Hill),299,120100,62100,51.80556,-9.15833,1948,(null)
Cork,204,CARRIGTUOHILL RECTORY,33,188500,73800,51.91667,-8.16667,1938,1943
Cork,9902,M.SCHULL (MT.GABRIEL),396,93200,34800,51.55556,-9.54028,1948,1955
Cork,9906,M.MALLOW FOREST,229,160200,115100,52.28639,-8.58333,1995,2007
Donegal,9941,M.DUNLEWY (CRYSTAL ROCK),427,194500,421300,55.03889,-8.08611,1948,1955
Donegal,9940,M.LOUGH ESKE (Burns Mtn.),274,194300,384200,54.70556,-8.08889,1953,(null)
Donegal,9942,M.GREENCASTLE (Craughaulin Mtn),320,262500,442000,55.22083,-7.01806,1948,(null)
Donegal,2441,GWEEDORE WEIR,61,185330,422430,55.04917,-8.23028,1997,2019
Donegal,2440,ARDNAWARK BARNESMORE,87,201445,384310,54.70694,-7.97806,1982,(null)
Donegal,340,BUNDORAN G.S.,25,182200,358900,54.47778,-8.275,1942,1952
Donegal,341,BUNBEG G.S.,32,180400,423800,55.06111,-8.30694,1948,1959
Donegal,345,CLONMANY (MEENDORAN LAKE),134,239700,443400,55.23611,-7.37639,1948,1957
Donegal,2541,GLENTORNAN,66,189900,419000,55.01861,-8.15833,2004,2012
Donegal,342,BALLYBOFEY (BARNESMORE GAP),183,204500,387900,54.73889,-7.93056,1948,1964
Donegal,2537,PETTIGO,88,210400,366400,54.54583,-7.83889,1950,1996
Donegal,1241,ARRANMORE ISLAND,91,167800,415500,54.98611,-8.50278,1956,1968
Donegal,1243,LETTERKENNY (Magherenan),9,219200,412000,54.95556,-7.7,1978,2011
Donegal,642,CASTLEFIN G.S.,15,226500,395100,54.80278,-7.5875,1948,1991
Donegal,1242,STRANORLAR (Cavan Lower),27,217525,395245,54.80472,-7.72833,1965,2016
Donegal,641,GLENCOLUMBKILLE G.S.,21,154200,385000,54.71111,-8.71111,1950,1991
Donegal,343,RATHMULLEN G.S.,6,229700,427600,55.09444,-7.53472,1948,1961
Donegal,344,ROSAPENNA HOTEL,9,211100,437700,55.18611,-7.825,1949,1962
Donegal,1244,GLENVEAGH,52,204000,422700,55.05139,-7.9375,1967,2010
Donegal,644,DUNFANAGHY G.S.,12,201800,437400,55.18333,-7.97222,1948,1984
Donegal,643,CHURCHILL G.S.,133,207000,415900,54.99028,-7.89028,1950,1972
Donegal,2640,BRUCKLESS,15,175065,376575,54.63667,-8.38694,1985,(null)
Donegal,645,CARNDONAGH (Rocksmount) II,30,248440,445940,55.25806,-7.23889,1984,(null)
Donegal,2641,DUNLEWY LOUGH,107,192365,419675,55.02444,-8.12,2012,(null)
Donegal,2840,INVER,15,182600,378400,54.65333,-8.26944,1987,1991
Donegal,1341,GWEEDORE (GEN.STN.),64,187600,422000,55.045,-8.19444,1958,1997
Donegal,1344,CARRIGART (DRUMREEN),88,213600,434600,55.15833,-7.78611,1968,1969
Donegal,1343,SPEENOGE (GRIANAN ESTATE),5,235800,421700,55.04167,-7.44028,1961,1990
Donegal,1342,RAPHOE,70,226200,403000,54.87361,-7.59167,1966,1968
Donegal,2940,KILLYBEGS WATERWORKS,122,171000,378200,54.65083,-8.45,1995,2002
Donegal,141,GWEEDORE E.S.B.(Clady),61,185200,422500,55.05,-8.23194,1956,1958
Donegal,140,DUNKINEELY RECTORY,32,176300,376200,54.63333,-8.36667,1935,1945
Donegal,1441,GLENCOLUMBKILLE (CASHEL),30,153400,384600,54.70694,-8.72361,1966,1976
Donegal,1440,PETTIGO (MEENSHEEFIN),148,201600,370100,54.57917,-7.975,1952,2000
Donegal,3237,BALLYSHANNON (Cherrymount),30,190055,360415,54.49194,-8.15417,1954,(null)
Donegal,1442,FINTOWN (LAKE VIEW),152,191800,402100,54.86667,-8.12778,1967,1968
Donegal,1444,MILFORD KILMACRENNAN ROAD,30,219200,426400,55.085,-7.69917,1984,2003
Donegal,1443,ILLIES (Pollan Dam Waterworks),152,241640,433925,55.15083,-7.3475,2002,(null)
Donegal,740,CARRICK G.S.,32,159200,379100,54.65833,-8.63194,1948,1996
Donegal,743,KILMACRENNAN G.S.,44,214200,420200,55.02917,-7.77778,1950,1984
Donegal,741,CLOGHER G.S.,15,172600,398900,54.8375,-8.42639,1950,1996
Donegal,742,CLOGHAN,131,204100,399500,54.84306,-7.93611,1948,1970
Donegal,142,CONVOY G.S.,49,221400,401400,54.85972,-7.66667,1948,1949
Donegal,744,FALCARRAGH G.S.,52,193600,432300,55.1375,-8.1,1948,1984
Donegal,240,LOUGH ESKE (CLOGHER),223,201700,381100,54.67778,-7.97361,1953,1957
Donegal,145,MALIN HEAD S.W.S.(Old Site),23,241900,458600,55.37222,-7.33889,1885,1975
Donegal,1575,MALIN HEAD,20,241939,458562,55.37194,-7.33917,2009,(null)
Donegal,1540,CARRICK (CROVE),186,167100,384400,54.70694,-8.51111,1952,1965
Donegal,1544,BLOODY FORELAND,29,185510,432825,55.1425,-8.22806,1984,(null)
Donegal,1541,ARDARA(KILGOLE),15,173200,391100,54.76667,-8.41667,1970,1989
Donegal,1542,DRUMKEEN(LEGLAND),128,214300,402600,54.87083,-7.77778,1974,1977
Donegal,1543,KILMACRENNAN (Massreagh),49,213845,420170,55.02889,-7.78417,2002,(null)
Donegal,241,GWEEDORE (MEENACUING),84,188000,422100,55.04583,-8.1875,1948,1958
Donegal,144,DUNFANAGHY (St.Patrick's),9,202100,437400,55.18333,-7.96667,1880,1948
Donegal,243,RAMELTON (LENNON BANK),21,222800,421500,55.04028,-7.64306,1948,1961
Donegal,143,BUNCRANA RECTORY,15,235100,431900,55.13333,-7.45,1929,1944
Donegal,440,DONEGAL (CULLIONBOY W.W.),94,199700,382200,54.6875,-8.00417,1948,1952
Donegal,244,DUNLEWY (MEENAGOPPAGH),204,196200,423100,55.05556,-8.05972,1948,1955
Donegal,242,LIFFORD (DIST.HOSP.),11,233200,398200,54.83056,-7.48333,1948,1953
Donegal,1641,CROLLY (Filter Works),91,184030,418125,55.01028,-8.25028,1972,(null)
Donegal,1640,FROSSES (CRONAGASS),216,184300,386400,54.725,-8.24306,1952,1972
Donegal,245,CARNDONAGH (Rocksmount),30,248400,446000,55.25833,-7.23889,1934,1984
Donegal,1642,BALLYBOFEY NAVENNY,26,214645,393955,54.79333,-7.77306,1982,(null)
Donegal,443,LETTERKENNY G.S.,8,216700,410900,54.94583,-7.73889,1948,1972
Donegal,1644,CREESLOUGH (ARDS ROAD),8,206400,432500,55.14,-7.89889,1984,2007
Donegal,442,STRANORLAR (VOC.SCH.),21,214500,395000,54.80278,-7.775,1948,1982
Donegal,441,GLENTIES HATCHERY,44,181510,393730,54.79111,-8.2875,1923,(null)
Donegal,840,MOUNTCHARLES G.S.,91,187400,377500,54.64583,-8.19444,1948,1991
Donegal,844,CREESLOUGH (Brockagh),119,201625,425840,55.08,-7.97528,1948,(null)
Donegal,445,CLONMANY (MEENDORAN COTTAGE),55,239000,444300,55.24444,-7.38611,1957,1991
Donegal,199,RITCHIES BAY,0,172000,374000,54.61333,-8.43333,1993,(null)
Donegal,843,NEWTOWNCUNNINGHAM G.S.,15,231500,416900,54.99861,-7.50833,1950,1984
Donegal,841,ARDARA (WOODHILL),27,173900,390300,54.75972,-8.40556,1950,1987
Donegal,444,MILFORD (MULROY TERRACE),30,219200,426700,55.0875,-7.7,1948,1960
Donegal,842,FINTOWN,155,191900,402100,54.86667,-8.12639,1948,1964
Donegal,1742,FINTOWN (Kingarrow),198,196420,405425,54.89639,-8.05667,1984,(null)
Donegal,1741,GLENCOLUMBKILLE (DRIMROE),49,154700,385000,54.71111,-8.70278,1976,1997
Donegal,1740,BUNDORAN (MAGHERACAR)G.S.,12,182000,358500,54.475,-8.27778,1953,1994
Donegal,1744,KINDRUM,9,219100,442100,55.22583,-7.7,1984,2001
Donegal,4737,BALLYSHANNON (LAHEEN),88,191200,365000,54.53611,-8.13611,1991,1999
Donegal,4885,ARDARA WWTP,13,173005,391405,54.76972,-8.42028,2019,(null)
Donegal,4985,GWEEDORE WEIR,56,185330,422430,55.04917,-8.23028,2019,(null)
Donegal,1844,FALCARRAGH (Lough Altan),137,193675,425925,55.08056,-8.09972,1988,(null)
Donegal,1840,LOUGH ESKE (EDERGOLE),94,197400,387000,54.73056,-8.04167,1953,2008
Donegal,5085,LOUGH MOURNE WTP,158,208730,391080,54.7675,-7.865,2019,(null)
Donegal,1842,BALLYBOFEY LOUGH MOURNE II,186,207300,390200,54.75944,-7.88639,1987,2003
Donegal,1841,OWENEA (GREENANS),76,187900,394100,54.79444,-8.18889,1981,2013
Donegal,5185,RAPHOE (Tops),100,225805,400285,54.84972,-7.59889,2019,(null)
Donegal,942,CARROWKEEL,15,251000,431500,55.12778,-7.2,1950,2002
Donegal,5237,FINNER,45,184200,360400,54.49194,-8.23972,1996,2011
Donegal,940,BALLINTRA G.S.,40,191800,370000,54.57778,-8.12639,1948,1991
Donegal,941,DOOCHARY (CUMMEEN),56,190400,409700,54.93472,-8.15,1950,1981
Donegal,5337,PETTIGO (THE CROSS),64,208600,365400,54.53667,-7.86722,1997,2003
Donegal,944,CREESLOUGH (Carrownamaddy),88,203200,431800,55.13333,-7.95,1948,(null)
Donegal,943,LOUGH SALT,259,212300,425600,55.07778,-7.80694,1968,1972
Donegal,1940,LOUGH ESKE (DRIMNACARRY),43,196700,381900,54.68472,-8.05139,1953,2008
Donegal,1942,CARRIGANS (Kildrum),61,237480,414805,54.97944,-7.41528,1996,(null)
Donegal,1941,DERRYHENNY DOOCHARY,57,183775,403805,54.88167,-8.25333,1981,(null)
Donegal,1944,DUNFANAGHY (Murroe),76,199450,434155,55.15444,-8.00944,1996,(null)
Donegal,5737,PETTIGO (Belault),72,207110,366685,54.54833,-7.89083,2004,(null)
Donegal,2041,KINCASSLAGH,35,175385,419600,55.02333,-8.38556,1984,(null)
Donegal,2040,LOUGH ESKE (KEADUE),87,201100,383600,54.7,-7.98333,1953,1982
Donegal,2042,KILLYGORDON (Ballyarrell),15,222220,393720,54.79083,-7.65528,1999,(null)
Donegal,2044,GLENVEAGH CASTLE,46,202130,420895,55.03556,-7.9675,1996,2011
Donegal,2075,FINNER,33,184300,360635,54.49389,-8.24306,2010,(null)
Donegal,540,DONEGAL (DIST.HOSP.),17,193500,378600,54.65556,-8.1,1948,1951
Donegal,1041,LOUGHANURE (VOC.SCH.),44,181300,398300,54.83194,-8.29028,1950,1965
Donegal,1040,MOUNTCHARLES (THE HALL),16,187600,376800,54.63889,-8.19167,1950,1971
Donegal,541,DUNLEWY,113,190900,420500,55.03194,-8.14306,1948,2003
Donegal,1044,KERRYKEEL G.S.,23,221400,432300,55.1375,-7.66389,1950,1991
Donegal,544,MILFORD G.S.,30,219300,426600,55.08611,-7.69722,1948,1991
Donegal,1043,LETTERKENNY (Dromore),20,220605,410955,54.94583,-7.67917,1970,(null)
Donegal,1042,PETTIGO (Lough Derg),146,209110,373145,54.60639,-7.85972,1952,(null)
Donegal,543,BUNCRANA G.S.,29,234900,431900,55.13333,-7.45278,1948,1984
Donegal,542,GREENCASTLE,53,264600,440800,55.21,-6.98583,1948,(null)
Donegal,2141,ARDARA (LURGANBOY),37,174500,390200,54.75889,-8.39667,1987,1994
Donegal,2140,KILCAR (FOR.STN.),195,166500,379800,54.66528,-8.51944,1967,1976
Donegal,2144,KERRYKEEL (SHORE ROAD),6,221400,434300,55.15528,-7.665,2002,2004
Donegal,2142,ALTNAPASTE,61,206500,395900,54.81111,-7.89917,2001,2009
Donegal,545,MALIN HEAD (Manual),22,241900,458600,55.37222,-7.33889,1957,2010
Donegal,2244,HORN HEAD,50,200826,438068,55.18972,-7.98778,1892,1917
Donegal,2240,FROSSES (MEENAGRAN),76,184500,383600,54.7,-8.24028,1972,2011
Donegal,8085,Ballyshannon_Cherrymount,30,190065,360410,54.49194,-8.15417,2020,(null)
Donegal,2237,BALLYSHANNON (Cathleen's Fall),38,188660,361120,54.49833,-8.17583,1945,(null)
Donegal,2242,QUIGLEY'S POINT (Three Trees),6,250090,429015,55.10583,-7.21583,2002,(null)
Donegal,2241,KILCLOONEY MORE,27,171685,396140,54.81222,-8.44111,1995,(null)
Donegal,8185,Glenveagh_National_Park,52,204040,422655,55.05139,-7.9375,2020,(null)
Donegal,8285,Illies_WTP,152,241620,433920,55.15083,-7.34806,2020,(null)
Donegal,1141,OWENEA (LIGNAGILLEW),93,187200,393500,54.78889,-8.19861,1953,1981
Donegal,1142,BALLYBOFEY (LOUGH MOURNE),186,206500,389900,54.75694,-7.89861,1964,1987
Donegal,1140,KILLYBEGS,15,171300,375800,54.62917,-8.44444,1950,1994
Donegal,1144,MILFORD (VOC.SCH.),52,219200,427000,55.09028,-7.7,1960,1984
Donegal,1143,TERMON (Goldrum),152,212285,423820,55.06167,-7.80861,1972,(null)
Donegal,2337,BALLYSHANNON (CLIFF HSE.),50,193500,360100,54.48889,-8.1,1945,1991
Donegal,2342,RAPHOE (Tops),61,225805,400285,54.84972,-7.59889,2002,2019
Donegal,2341,DUNGLOE,18,176385,410960,54.94556,-8.36917,1998,(null)
Donegal,2340,KILCAR (Cronasillagh),128,164935,377300,54.64278,-8.54389,1976,(null)
Donegal,9641,M.GLENTORNAN (Grogan More),442,185700,418500,55.01389,-8.22361,1948,(null)
Donegal,9640,M.LOUGH ESKE (BROCKAHY) II,183,197200,387700,54.7375,-8.04306,1994,2008
Donegal,9741,M.GLENTORNAN (L.Nabruckbaddy),366,186400,418400,55.0125,-8.2125,1948,(null)
Donegal,9740,M.MOUNTCHARLES (MUNTERNESSE),34,184400,374900,54.62222,-8.24167,1975,1982
Donegal,9841,M.OWENEA (LOUGH SHIVNAGH),276,187400,391600,54.77222,-8.19583,1953,2013
Donegal,9840,M.LOUGH ESKE (BROCKAHY),305,196900,388300,54.74306,-8.04861,1953,1994
Dublin,10323,STILLORGAN (FARMLEIGH),67,320514,227230,53.28194,-6.19389,1915,1935
Dublin,10123,DUBLIN (FITZWILLIAM SQUARE),16,316404,233098,53.33556,-6.25333,1908,1937
Dublin,10223,ROYAL BOTANIC GARDENS (GLASNEVIN,17,315083,237179,53.3725,-6.27167,1880,1925
Dublin,1223,BELGARD CASTLE,125,307400,229300,53.30278,-6.38889,1914,1963
Dublin,632,LUSK G.S.,23,321700,254300,53.525,-6.16528,1949,2012
Dublin,1232,KINSALEY (AGR.RES.STN.),19,321500,242900,53.42222,-6.17222,1961,2004
Dublin,2523,DUBLIN (Ringsend),7,318900,233900,53.34167,-6.21389,1911,(null)
Dublin,2623,HOWTH CASTLE,11,327900,239000,53.38611,-6.07778,1913,1971
Dublin,2723,STILLORGAN (VARTRY HSE.),80,320200,226800,53.27778,-6.19722,1915,1999
Dublin,2732,ARDGILLAN,62,321791,261102,53.58583,-6.16167,1894,1938
Dublin,1323,DUBLIN (KENILWORTH SQ.),30,314900,231000,53.31667,-6.275,1925,1957
Dublin,2823,DUBLIN (RATHFARNHAM CASTLE),54,314400,229100,53.3,-6.28333,1920,1970
Dublin,1332,MALAHIDE CASTLE,18,322200,245400,53.44444,-6.16111,1965,(null)
Dublin,2832,MALAHIDE (SEAMOUNT),46,323534,245094,53.44167,-6.14167,1908,1939
Dublin,2923,PEAMOUNT (SAN.),88,301200,230800,53.31806,-6.48056,1926,1980
Dublin,232,MALAHIDE G.S.,5,322800,245900,53.44861,-6.15139,1949,1960
Dublin,723,KILLINEY (RATHLEIGH),44,325700,223800,53.25,-6.11667,1925,1949
Dublin,3023,HOWTH (DANESFORT),122,328200,236900,53.36667,-6.07361,1931,1989
Dublin,1423,DUBLIN (BONHAM ST.),11,314500,234100,53.34444,-6.28056,1942,1954
Dublin,732,RUSH G.S.,20,325900,254000,53.52083,-6.10139,1949,1985
Dublin,3423,DALKEY (TORCA HILL),96,326700,226000,53.26944,-6.1,1941,1971
Dublin,1523,DALKEY (MOYTURA),36,325400,226600,53.275,-6.11944,1944,1951
Dublin,3524,BALLYEDMONDUFF HOUSE,335,318500,221800,53.23333,-6.225,1985,(null)
Dublin,1532,BALBRIGGAN (KILSAUGH),40,320500,262200,53.59583,-6.17917,1969,1992
Dublin,432,LUSK (NEVITT),47,317900,256900,53.54861,-6.22083,1923,1982
Dublin,3723,CASEMENT,91,304100,229500,53.30556,-6.43889,1944,(null)
Dublin,823,TALLAGHT (ST.MAELRUAIN'S),99,308900,227100,53.28333,-6.36667,1945,1950
Dublin,1624,GLENCULLEN (TIBRADDEN),335,315900,221300,53.22917,-6.26389,1950,1967
Dublin,1623,DUBLIN (MARROWBONE LANE),15,314300,233800,53.34167,-6.28333,1954,1962
Dublin,3923,DUBLIN (Merrion Square),13,316390,233655,53.34056,-6.25333,1948,(null)
Dublin,4023,DUBLIN (ARUS AN UACHTARAIN),46,312100,235600,53.35833,-6.31667,1948,1973
Dublin,150,DUBLIN AIRPORT-CHECK,69,315700,243000,53.42444,-6.25972,1994,1997
Dublin,832,BALBRIGGAN (TRANS.STN.),26,319800,263700,53.60972,-6.19028,1949,1968
Dublin,4123,DUBLIN (UPR.O'CONNELL ST.),16,315900,234900,53.35139,-6.25972,1948,1979
Dublin,4223,LEIXLIP (GEN.STN.),42,300700,235800,53.3625,-6.4875,1949,2012
Dublin,124,FOXROCK (Clarebeg),59,323300,225000,53.26111,-6.15278,1890,1955
Dublin,4323,RATHCOOLE G.S.,123,302400,226800,53.28194,-6.46389,1949,1970
Dublin,175,PHOENIX PARK,48,309915,236070,53.36361,-6.34972,2003,(null)
Dublin,1723,DUBLIN (Phoenix Park),49,310000,236100,53.36389,-6.34722,1829,2003
Dublin,1732,LUSK NEVITT II,43,318100,256900,53.54861,-6.21806,1982,1992
Dublin,4823,LUCAN G.S.,29,303200,235000,53.35556,-6.45,1949,1982
Dublin,1823,DUBLIN (Glasnevin),21,315175,236910,53.37,-6.27028,1860,(null)
Dublin,932,GARRISTOWN G.S.,126,307000,258600,53.56667,-6.38472,1949,1992
Dublin,1923,GLENASMOLE D.C.W.W.,158,309000,222200,53.23889,-6.36667,1885,2014
Dublin,5523,GLENASMOLE (Castlekelly),183,310200,220800,53.22639,-6.35,1959,2013
Dublin,5580,LH_KISH,11,338200,231000,53.31083,-5.92583,2000,(null)
Dublin,5623,GLENASMOLE (Supt's Lodge),152,309200,222200,53.23889,-6.36389,1959,(null)
Dublin,5680,LH_BAILY,13,329561,236331,53.36167,-6.05472,2000,(null)
Dublin,5723,DUBLIN (BALLSBRIDGE),9,318200,232300,53.32778,-6.225,1959,1972
Dublin,532,DUBLIN AIRPORT,71,316900,243400,53.42778,-6.24083,1939,(null)
Dublin,1023,LAMBAY ISLAND,8,330500,249900,53.48333,-6.03333,1907,1943
Dublin,5823,KILLINEY (TEDBURN),122,325700,225400,53.26389,-6.11667,1961,1992
Dublin,2024,SHANGANAGH,9,325900,223200,53.24444,-6.11389,1966,1991
Dublin,2023,DUN LAOGHAIRE (PEOPLE'S PARK),8,324800,228100,53.28889,-6.12778,1901,1992
Dublin,5923,DUBLIN (BALLYMUN AVE.),61,314200,239000,53.38889,-6.28333,1962,1970
Dublin,5985,DUBLIN (Glasnevin),21,315175,236910,53.368,-6.27028,2018,(null)
Dublin,6023,HOWTH (D.C.),6,327700,239400,53.38889,-6.08056,1962,1994
Dublin,6185,SHANGANAGH WWTP,25,325860,223270,53.24528,-6.11528,2018,(null)
Dublin,6223,DUN LAOGHAIRE (ROSMEEN GDNS.),21,324800,227800,53.28611,-6.12778,1962,1975
Dublin,6323,MILLTOWN (GOLF CLUB),30,316500,229900,53.30694,-6.25278,1963,2000
Dublin,324,SHANKHILL (SHERRINGTON),35,325200,221300,53.22778,-6.125,1921,1956
Dublin,6423,DUBLIN (COOLOCK CHANEL COLL.),40,319600,239100,53.38889,-6.20278,1963,1975
Dublin,6523,DUBLIN (THORNDALE HSE.),40,317500,238200,53.38056,-6.23472,1964,1973
Dublin,2123,DUBLIN (TRINITY COLL.),6,316200,234100,53.34444,-6.25556,1904,1970
Dublin,2124,BALLYEDMONDUFF,277,318700,222300,53.2375,-6.22222,1967,1985
Dublin,6623,BALLYBODEN,107,313100,226500,53.27639,-6.30417,1966,(null)
Dublin,2132,DUBLIN AIRPORT II,69,315700,243000,53.42444,-6.25972,1993,2007
Dublin,6823,TALLAGHT,85,309900,227500,53.28611,-6.35139,1966,1969
Dublin,6923,TIBRADDEN (LARCH HILL),229,314700,223900,53.25278,-6.28056,1967,1992
Dublin,7023,CLONDALKIN,53,307700,231900,53.32639,-6.38333,1967,1985
Dublin,7123,DUBLIN (ST.PAUL'S COLL.),24,320500,237300,53.37222,-6.18889,1967,1970
Dublin,7223,RATHCOOLE-SAGGART,107,303200,227300,53.28611,-6.45278,1969,2001
Dublin,7323,STILLORGAN (PARK HSE.),52,320600,228000,53.28889,-6.19167,1971,1973
Dublin,1123,DUBLIN (LEESON ST.),15,315500,232900,53.33333,-6.26667,1938,1954
Dublin,7423,RATHFARNHAM (ST.COLUMBA COLL.),134,315400,225300,53.26528,-6.27083,1972,1998
Dublin,2232,GARRISTOWN (TOBERGREGAN),115,307800,256500,53.54778,-6.37417,1995,2000
Dublin,7523,DUBLIN (SIMMONSCOURT),9,318300,232000,53.325,-6.225,1972,2015
Dublin,7623,LUCAN (U.C.D.),52,301800,236600,53.36944,-6.47083,1972,1984
Dublin,2223,DUN LAOGHAIRE (HARBOUR YD.),16,324300,228700,53.29444,-6.13611,1905,2001
Dublin,7823,DUBLIN(PEMBROKE ROAD),8,317500,232600,53.33056,-6.23611,1975,1978
Dublin,7923,BRITTAS (Glenaraneen),244,303400,223500,53.25139,-6.45139,1975,(null)
Dublin,8023,DUBLIN (DUNDRUM),61,316700,227900,53.28889,-6.25,1975,2001
Dublin,8223,BLACKROCK,46,321600,227200,53.28139,-6.17611,1982,1997
Dublin,8723,BLANCHARDSTOWN (AUBURN AVE),56,309400,237800,53.37944,-6.35611,1993,1996
Dublin,9023,DUNDRUM (DROMARTIN),64,317700,227700,53.28694,-6.23444,1997,1999
Dublin,332,SKERRIES (MILVERTON HALL),64,323100,259300,53.56944,-6.14167,1907,2007
Dublin,9223,DUN LAOGHAIRE,30,324500,227800,53.28556,-6.1325,1997,(null)
Dublin,9423,LUCAN (HERMITAGE G.C.),46,304100,235800,53.36194,-6.43667,1999,1999
Dublin,9523,DUBLIN (BLACKROCK COLLEGE),8,320400,229700,53.30417,-6.19361,2003,2003
Dublin,9623,KNOCKLYON (ST.COLUMCILLE'S),88,312300,226500,53.27722,-6.31667,2004,2005
Dublin,9723,Dublin-Navan_Road,52,311300,236700,53.36917,-6.32722,2010,2011
Dublin,623,BRITTAS,246,303500,221400,53.23333,-6.45,1938,1943
Dublin,9823,DUBLIN (MERRION SQUARE),13,316400,233500,53.33889,-6.25278,2011,2011
Dublin,2423,DUBLIN (CLONTARF),5,318100,236300,53.36389,-6.225,1911,2001
Galway,9927,M.MAAM (KILMEELICKIN),314,94100,255800,53.54167,-9.59722,1968,1983
Galway,9926,M.OWENGLIN (BENBAUN),427,77700,254100,53.52222,-9.84444,1953,1961
Galway,2428,BALLINASLOE(KILCLOONEY),46,182700,231800,53.33611,-8.25972,1976,1979
Galway,628,AHASCRAGH (CLONBROCK),58,174500,239200,53.40278,-8.38333,1874,1993
Galway,2425,ROUNDSTONE_Toombeola,15,75335,244470,53.435,-9.873,2019,(null)
Galway,627,CONG (FOR.STN.),30,114200,254800,53.53611,-9.29444,1941,1961
Galway,1219,WOODFORD (FOR.STN.),82,173200,200300,53.05278,-8.4,1943,1960
Galway,1221,ATHENRY (ATTYMON),78,158500,228500,53.30556,-8.62222,1951,1991
Galway,1226,CLEGGAN FARM,18,61000,258800,53.56111,-10.09722,1971,1980
Galway,1225,COSTELLOE FISHERY,12,97455,226775,53.28167,-9.53806,1960,(null)
Galway,2521,CRAUGHWELL (Grenage),27,149720,219970,53.22806,-8.75361,1985,(null)
Galway,2528,BALLYFORAN (BORD NA MONA),47,179885,243300,53.43972,-8.30333,1976,2019
Galway,2527,MAAM G.S.,18,96100,252400,53.51111,-9.56667,1941,1988
Galway,2526,MOYARD (Shanbolard),64,63660,258840,53.56194,-10.05833,1997,(null)
Galway,2619,KILRICKLE G.S.,100,170000,220100,53.23056,-8.45,1943,1989
Galway,2621,BALLYFA,82,165800,226800,53.29056,-8.51333,1993,2013
Galway,2626,KYLEMORE ABBEY GARDENS,61,73125,259219,53.56389,-9.91083,2000,(null)
Galway,2628,BALLINASLOE (Derrymullen),43,183350,232360,53.34139,-8.25083,1985,(null)
Galway,2627,OUGHTERARD G.S.,15,112100,242800,53.42778,-9.32222,1941,1983
Galway,225,ROSMUCK (Voc.Sch.),15,92800,238500,53.38611,-9.61111,1950,1963
Galway,2719,KILTORMER,78,181900,221000,53.23889,-8.27083,1943,(null)
Galway,2721,LOUGHREA (Rathruddy West),76,160015,218055,53.21167,-8.56583,1998,(null)
Galway,1318,SHANAGLISH G.S.,40,143900,195300,53.00556,-8.83611,1943,1990
Galway,2726,LEENANE (Glanagimla),17,89560,262950,53.605,-9.66917,2005,(null)
Galway,2728,BALLINASLOE (ST.ENDA'S),56,186700,231900,53.3375,-8.19917,1988,1993
Galway,227,GALWAY (Grammar Sch.),20,130500,225500,53.275,-9.04167,1931,1958
Galway,1321,ARDRAHAN G.S.,43,146000,212000,53.15556,-8.80694,1952,1983
Galway,1325,BALLYNAHINCH (FOR.STN.),27,75300,248600,53.47222,-9.87778,1962,1985
Galway,1327,DUNMORE G.S.,61,151500,263500,53.61944,-8.73333,1941,1991
Galway,1326,OWENGLIN (BARNANONG NO.2),98,73900,251400,53.49722,-9.9,1970,1981
Galway,2819,EYRECOURT G.S.,58,191100,216300,53.19722,-8.13333,1943,1990
Galway,1328,WILLIAMSTOWN G.S.,88,161600,269900,53.67778,-8.58056,1944,1969
Galway,2821,ARDRAHAN (Grannagh),46,150195,211105,53.14833,-8.745,1998,(null)
Galway,2828,BALLINASLOE (Pollboy Lock),46,187255,229210,53.31333,-8.19194,2002,(null)
Galway,2919,KILLIMOR G.S.,59,180900,212800,53.16528,-8.28611,1943,1984
Galway,2927,CASTLE HACKET,43,135900,250100,53.49722,-8.96667,1943,1975
Galway,2926,KYLEMORE CASTLE,61,73441,258785,53.56389,-9.91083,1889,1904
Galway,3021,WOODLAWN,101,168760,231600,53.33389,-8.46972,2014,(null)
Galway,721,CRAUGHWELL G.S.,27,151000,220300,53.23056,-8.73333,1943,1984
Galway,727,GALWAY (TRANS.STN.),18,130700,226100,53.28056,-9.03889,1941,1956
Galway,3028,KILCONNEL RECTORY,98,173325,231254,53.33111,-8.40111,1875,1886
Galway,3027,MILLTOWN,50,140940,262810,53.61194,-8.89306,1944,(null)
Galway,726,LETTERFRACK G.S.,41,71200,257800,53.55417,-9.94444,1950,1985
Galway,725,CARRAROE G.S.,18,93200,225100,53.26528,-9.60139,1950,1985
Galway,1421,GORT (Derrybrien),177,160200,202400,53.07083,-8.59444,1952,1982
Galway,1425,CLOOSH (FOR.STN.),101,110865,235215,53.35972,-9.33944,1963,2017
Galway,728,BALLYGAR (AUGHRANE),59,179600,254700,53.54167,-8.30833,1931,1968
Galway,1428,MOYLOUGH G.S.,78,162600,248600,53.48611,-8.56389,1944,1994
Galway,1426,MOYARD,13,63000,258900,53.5625,-10.06806,1980,2002
Galway,3127,GLENAMADDY (Gortnagier),84,162795,261085,53.59861,-8.56278,1944,(null)
Galway,3227,MOYCULLEN G.S.,38,121400,232700,53.33889,-9.18056,1945,1985
Galway,421,GORT G.S.,24,145100,202100,53.06667,-8.81944,1943,1971
Galway,426,BALLYNAKILL RECTORY,26,67300,256800,53.54444,-10.00278,1935,1960
Galway,3427,GALWAY (BALLYBAAN TRANS.STN.),40,132600,226800,53.2875,-9.01111,1954,1969
Galway,425,INVERIN G.S.,30,104700,222000,53.24028,-9.42778,1950,1969
Galway,1526,KILLARY YOUTH HOSTEL,9,76900,265000,53.62028,-9.86028,1981,1994
Galway,1525,GALWAY (COLAISTE EINDE),24,127400,224300,53.26389,-9.08889,1964,1967
Galway,3627,GALWAY (THE FISHERY),11,129600,225300,53.27361,-9.05556,1958,1968
Galway,3685,GORT (Derrybrien),58,159800,201890,53.06639,-8.60028,2019,(null)
Galway,3727,CONG (CLOGHER),38,113300,254800,53.53611,-9.30833,1961,1991
Galway,821,BOOKEEN G.S.,47,158300,223600,53.26111,-8.625,1943,1976
Galway,3885,CLOOSH (For.Stn.),101,110845,235210,53.35972,-9.33972,2018,(null)
Galway,825,LETTERMORE G.S.,27,89600,228300,53.29306,-9.65556,1950,1985
Galway,3927,GALWAY (Univ.Coll.),14,129000,225600,53.27639,-9.06389,1965,2012
Galway,1625,CARNA (MARINE BIOLOGY STN.),6,78200,230800,53.31389,-9.82778,1967,2003
Galway,1628,CREGGS G.S.,72,175900,260600,53.59444,-8.36389,1944,1991
Galway,827,MOYCULLEN HSE.,122,121200,232100,53.33333,-9.18333,1940,1945
Galway,1626,CONNEMARA NATIONAL PARK,58,71300,257500,53.55139,-9.9425,1982,2010
Galway,3985,CONNEMARA NATIONAL PARK,58,71330,257425,53.55111,-9.94222,2018,(null)
Galway,828,BALLINASLOE(ST.BRIGID'S HOSP.),43,186300,230900,53.32778,-8.20556,1941,1975
Galway,4027,MAAM (AGR.RES.STN.),34,93000,255200,53.53611,-9.61389,1968,1978
Galway,4085,TERRYLAND WTP,16,129655,226705,53.28611,-9.053,2018,(null)
Galway,275,MACE HEAD,21,73400,232276,53.32583,-9.90083,2003,(null)
Galway,4185,MAAM VALLEY,58,93395,255290,53.53694,-9.60861,2018,(null)
Galway,4227,CORNAMONA,30,104800,253000,53.51806,-9.43611,1968,2011
Galway,4285,TUAM WWTP,58,141645,252035,53.509,-8.875,2019,(null)
Galway,4327,BELCLARE (AGR.RES.STN.),44,135900,246700,53.46667,-8.96528,1977,1998
Galway,1725,ROUNDSTONE,15,72605,242350,53.41611,-9.91667,1985,2019
Galway,4427,MAAM (AGR.RES.STN.) II,30,92200,256500,53.54722,-9.62639,1978,1983
Galway,1728,AHASCRAGH G.S.,55,177800,238600,53.39722,-8.33333,1944,1963
Galway,4527,HEADFORD O.P.W.,30,126930,247280,53.47083,-9.10111,1981,(null)
Galway,4627,DRUM WEST,67,124400,227900,53.29611,-9.13333,1982,2013
Galway,128,MOUNT BELLEW N.S.,66,166800,246400,53.46667,-8.5,1928,1946
Galway,4727,TUAM SUGAR FACTORY,37,142000,253800,53.53056,-8.875,1981,1985
Galway,4827,MAAM VALLEY,58,93390,255295,53.53694,-9.60861,1983,(null)
Galway,1819,PORTUMNA O.P.W.,35,187200,204600,53.09167,-8.19167,1928,(null)
Galway,925,CARNA G.S.,14,78200,232100,53.325,-9.82778,1950,1985
Galway,1825,RECESS (CLOONACARTAN),15,83100,248300,53.47167,-9.76111,1989,1994
Galway,921,PETERSWELL G.S.,46,150300,207300,53.11389,-8.74167,1943,1972
Galway,1821,NEW INN N.S.,88,167400,227900,53.3,-8.48889,1970,1983
Galway,1827,KILCONLY G.S.,46,134900,258500,53.57222,-8.98333,1941,1998
Galway,927,BALLYGLUNIN HSE.,37,146100,242000,53.425,-8.81111,1946,1961
Galway,1828,MOUNT BELLEW (FOR.STN.),67,165900,246400,53.46667,-8.51389,1944,1993
Galway,926,CLEGGAN,17,59600,258300,53.55556,-10.11944,1952,1984
Galway,125,RECESS (Inagh Cross),21,83600,247600,53.46528,-9.75278,1955,1959
Galway,5027,OUGHTERARD (ARDNASILLAGH),18,116620,241980,53.42167,-9.255,1988,2014
Galway,1875,ATHENRY,40,147659,226804,53.28917,-8.78556,2010,(null)
Galway,521,KINVARA G.S.,11,137400,210200,53.13889,-8.93611,1943,1999
Galway,525,SPIDDAL G.S.,12,112800,222400,53.24444,-9.30694,1950,1976
Galway,5327,GALWAY RACECOURSE,53,133800,227500,53.29361,-8.99222,2000,2000
Galway,1921,ATHENRY (MELLOWES AGR.COLL.),43,148100,226600,53.2875,-8.77778,1975,2012
Galway,1925,INISHMORE,46,87200,210100,53.12917,-9.68556,1995,(null)
Galway,1928,MOUNT BELLEW (AGR.COLL.),66,167200,246700,53.46944,-8.49444,1951,1966
Galway,5427,OUGHTERARD GOLF CLUB,17,114600,242100,53.42167,-9.28444,2009,(null)
Galway,5485,MOUNTBELLEW_AGRIC_COL,66,167290,246590,53.46861,-8.49333,2019,(null)
Galway,5527,MOYCULLEN (Loughwell),98,118275,229235,53.3075,-9.22667,2013,(null)
Galway,126,CLIFDEN (D.E.Schools),58,65600,251100,53.49306,-10.025,1952,1954
Galway,527,GURTEEN G.S.,96,161000,235000,53.36389,-8.58611,1941,1953
Galway,526,CLIFDEN RECTORY,17,65400,250400,53.48611,-10.02778,1944,1962
Galway,528,GOWLA (EXP.STN.),53,178800,246500,53.46806,-8.31944,1952,1959
Galway,2018,CARHEENY BEG,47,144270,194250,52.99639,-8.83083,1993,(null)
Galway,1021,LOUGHREA G.S.,85,161800,216500,53.19722,-8.57222,1943,1998
Galway,1025,ROUNDSTONE G.S.,21,72300,239800,53.39306,-9.91944,1950,1983
Galway,2021,GALWAY S.W.S.,20,132700,225600,53.27611,-9.00944,1978,1990
Galway,1028,KILCONNEL G.S.,91,173400,231200,53.33056,-8.4,1943,1983
Galway,2027,COROFIN G.S.,34,142600,243200,53.43611,-8.86389,1941,1991
Galway,2025,COSTELLO FISHERY II,11,97700,226900,53.28278,-9.53333,1996,2000
Galway,1027,ROSSCAHIL (KILLAGUILE),40,114800,238700,53.39167,-9.28056,1946,1951
Galway,5927,NUIG,9,129078,225617,53.27639,-9.06389,1864,1952
Galway,1026,OWENGLIN (BARNANONG),158,76900,252700,53.50972,-9.85556,1953,1970
Galway,2026,INISHBOFIN,23,55300,265500,53.61889,-10.18667,1984,(null)
Galway,6027,CLONBUR_PetersburgOEC,18,108270,257275,53.555,-9.384,2020,(null)
Galway,6127,CONG (THE GLEBE),34,115905,256088,53.548176,-9.269603,1900,1923
Galway,6227,TUAM (GARDENFIELD),47,142149,254977,53.54174,-8.87348,1900,1935
Galway,321,NEW INN G.S.,88,167000,227700,53.29861,-8.49444,1941,1993
Galway,6327,GALWAY-Circular_Road,54,127765,226685,53.285,-9.084,2020,(null)
Galway,2121,GORT (Derrybrien) II,155,159765,201910,53.06667,-8.60083,1982,(null)
Galway,2125,MACE HEAD,15,73500,232300,53.32583,-9.89806,1998,2000
Galway,2127,BARNADERG G.S.,61,152100,247800,53.47778,-8.72222,1941,1988
Galway,2126,CLEGGAN (Cloch Breac),21,60265,258135,53.55472,-10.10917,1984,(null)
Galway,325,BALLYNAHINCH CASTLE,12,76200,247300,53.46111,-9.86389,1913,1963
Galway,2128,BALLYMOE G.S.,61,169700,271900,53.69583,-8.45833,1952,1997
Galway,1121,ATHENRY (AGR.COLL.),46,148100,226800,53.28889,-8.77778,1944,1975
Galway,2221,INISHERE,6,98000,202700,53.06528,-9.52222,1982,2017
Galway,1125,CONNEMARA (CASHEL BAY),15,80700,242200,53.41667,-9.79444,1955,1976
Galway,2227,CARNDOLLA,24,132495,239655,53.40306,-9.01556,1941,(null)
Galway,327,MONIVEA (FOR.STN.),82,153700,236300,53.375,-8.69583,1951,1952
Galway,2226,CLIFDEN,18,65670,249655,53.48,-10.02417,1985,(null)
Galway,2225,CAMUS,30,96260,237090,53.37417,-9.55944,2001,(null)
Galway,1127,TUAM (AIRGLOONEY),34,142000,253100,53.525,-8.875,1941,1981
Galway,1126,MOYARD (BALLYNEW),15,63100,258800,53.56111,-10.06667,1960,1969
Galway,2228,BALLYGAR,61,178400,252500,53.52222,-8.325,1969,2011
Galway,2325,FURBO,72,118700,224600,53.26556,-9.21917,2004,2007
Galway,2327,LAGHTGEORGE G.S.,14,138000,234300,53.35556,-8.93056,1941,1998
Galway,2328,BALLINASLOE (THE PINES),40,186700,230700,53.32639,-8.2,1975,1988
Galway,621,KILCOLGAN G.S.,13,141900,218200,53.21111,-8.86944,1943,1985
Galway,9726,M.OWENGLIN (EMLAUGHDAUROE),146,75000,250300,53.4875,-9.88333,1954,1961
Galway,9826,M.OWENGLIN (TIEVEBAUN),274,74400,252600,53.50833,-9.89306,1954,1981
Galway,625,KILRONAN G.S.,15,88300,209100,53.12083,-9.66806,1950,1996
Galway,9827,M.MAAM (Mt.Rinavore),389,92100,258000,53.56056,-9.62917,1983,2017
Galway,2421,KILCHREEST G.S.,64,154700,212900,53.165,-8.67778,1984,1999
Kerry,2505,BARRADUFF G.S.,113,108100,90400,52.05833,-9.34028,1951,1988
Kerry,2510,LIXNAW GARRYNAGORE,15,88400,125200,52.3675,-9.63861,1985,1999
Kerry,2605,KILLORGLIN (VOC.SCH.),28,77500,96200,52.10417,-9.7875,1952,1982
Kerry,1305,CASTLEISLAND (VOC.SCH.),41,100400,110100,52.23333,-9.45833,1944,1988
Kerry,1309,TRALEE (LISDARA),18,84500,114900,52.27361,-9.69306,1978,1979
Kerry,2705,KILLARNEY (GT.SOUTHERN HOTEL),43,97500,90800,52.05972,-9.49444,1958,1968
Kerry,2710,KNOCKNAGOSHEL (Meinleitrim),183,106125,116735,52.29472,-9.37667,1992,(null)
Kerry,403,WATERVILLE (VOC.SCH.),26,50700,66800,51.83333,-10.16667,1942,1946
Kerry,703,WATERVILLE OCTIVE NO.9,110,58800,70600,51.86944,-10.05,1942,(null)
Kerry,705,KILLORGLIN (Callinafercy),14,77900,99400,52.13333,-9.78333,1921,2018
Kerry,405,GAP OF DUNLOE,34,88500,81900,51.97778,-9.62222,1885,2016
Kerry,2805,CASTLEISLAND O.P.W.,30,100200,109400,52.22778,-9.46111,1959,1962
Kerry,2810,NORTH KERRY LANDFILL,259,95000,117400,52.29806,-9.53917,1997,2014
Kerry,709,ARDFERT G.S.,23,78700,120400,52.32222,-9.77917,1951,1975
Kerry,2885,BALLYBUNION WWTP,8,86630,138920,52.49028,-9.66972,2019,(null)
Kerry,2905,KILLARNEY (DROM AULINN),32,97100,90200,52.05417,-9.5,1966,1972
Kerry,2910,KNOCKNAGOSHEL (LOWER DERK),195,105400,125000,52.36861,-9.38861,1999,1999
Kerry,1403,LAURAGH G.S.,8,77300,58300,51.76389,-9.77778,1952,1985
Kerry,409,BALLYFERRITER G.S.,37,35400,104200,52.16528,-10.40556,1950,1989
Kerry,1405,OOLAGH (Caragh River Area),98,74200,90400,52.05139,-9.83472,1949,2010
Kerry,2985,DOOKS GOLF CLUB,18,68115,94350,52.08583,-9.92472,2019,(null)
Kerry,1411,BALLYLONGFORD G.S.,9,99900,144400,52.54167,-9.475,1941,1995
Kerry,3005,KILLARNEY (GOLF CLUB),9,92800,91100,52.06111,-9.56389,1967,1972
Kerry,1409,CAMP (DEELIS),6,66800,110200,52.22778,-9.95,1979,1999
Kerry,3010,LISTOWEL (Gurtocloghane),125,99900,125900,52.37583,-9.46944,2000,(null)
Kerry,3006,BARNA,226,113200,102400,52.16667,-9.26806,1950,1985
Kerry,3085,KILLARNEY (Muckross House),29,96990,86575,52.02222,-9.50139,2019,(null)
Kerry,3105,KILLARNEY (GORTDROMAKIERY),181,101200,83800,51.99722,-9.43889,1968,1995
Kerry,3110,BROSNA (SCALP),229,111400,114800,52.27806,-9.29861,2004,2013
Kerry,3205,KILLARNEY (Muckross House),58,97200,86200,52.01667,-9.49861,1968,2019
Kerry,109,TRALEE (Clash),15,84700,114400,52.26944,-9.68889,1937,1996
Kerry,3305,LYRANES-UPPER(CARAGH RVR.AREA),91,72500,84900,52.00139,-9.85694,1969,1990
Kerry,1503,KENMARE (Doon),9,78300,67000,51.84167,-9.76667,1953,1993
Kerry,1505,LYRANES (CARAGH RIVER AREA),85,72500,84100,51.99444,-9.85694,1949,1969
Kerry,1510,LYREACRUMPANE (REENAGOWN),187,97300,118200,52.30556,-9.50556,1947,2011
Kerry,1509,TRALEE (Lisaboula),152,87400,109900,52.22917,-9.64861,1980,(null)
Kerry,3405,KILLARNEY (LISSIVIGEEN N.S.),69,100000,89700,52.05,-9.45833,1969,1984
Kerry,3410,LISTOWEL (Bunaghara),34,103305,133215,52.44222,-9.42278,2013,(null)
Kerry,803,WATERVILLE OCTIVE NO.10,110,54800,69700,51.86111,-10.10833,1942,1982
Kerry,3505,KILLARNEY (FARM CENTRE),49,96000,92100,52.07083,-9.51667,1976,1992
Kerry,805,BEAUFORT G.S.,35,87800,91800,52.06667,-9.63611,1941,1995
Kerry,809,BALLYHEIGUE G.S.,11,75000,128000,52.38889,-9.83611,1951,1997
Kerry,3605,BAWNASKEHY CASTLEISLAND,52,101700,106400,52.20111,-9.4375,1982,(null)
Kerry,810,BALLYDUFF G.S.,36,87000,134800,52.45278,-9.6625,1941,2000
Kerry,105,BALLYMACELLIGOT RECTORY,39,91900,112100,52.25,-9.58333,1929,1944
Kerry,3705,VENTRY THE BOAT SLIP,3,38400,100400,52.13167,-10.36056,1982,(null)
Kerry,1603,KILGARVAN (Gortnaboul),34,100800,73100,51.90139,-9.44167,1969,(null)
Kerry,1605,GLENVICKEE (Caragh River Area),128,74300,81700,51.97361,-9.82917,1949,(null)
Kerry,1610,BROSNA (MT.EAGLE),238,111200,112500,52.25694,-9.3,1947,2004
Kerry,1609,ARDFERT (Liscahane),30,79100,119200,52.31111,-9.77361,1980,(null)
Kerry,3805,KILLORGLIN V.S. II,34,77900,95700,52.1,-9.78194,1982,1988
Kerry,3905,GLENCAR (Dreenagh),69,69100,85200,52.00333,-9.90694,1983,(null)
Kerry,4005,MACGILLYCUDDY (L.EIGHTER),451,77900,85200,52.00556,-9.77778,1983,1995
Kerry,4105,BALLINSKELLIGS THE GLEN,40,39400,69100,51.85083,-10.33056,1985,(null)
Kerry,1703,WATERVILLE OCTIVE NO.10A,163,60100,69900,51.86417,-10.03056,1982,1995
Kerry,4205,CAPPANALEA GLENCAR,107,72800,89800,52.04583,-9.85444,1986,1989
Kerry,1705,CLOONE LAKE (Caragh River Area),122,71200,78400,51.94306,-9.87361,1949,(null)
Kerry,1709,TRALEE (OAKVIEW),17,84200,115000,52.275,-9.69667,1982,1995
Kerry,1710,BROSNA,134,113300,118600,52.3125,-9.27083,1947,1992
Kerry,4306,BALLYDESMOND (TURREENGARRIVE),299,112300,103800,52.17917,-9.28194,1966,1968
Kerry,4305,DINGLE (MILLTOWN),9,42900,101500,52.14306,-10.29444,1989,1995
Kerry,4405,FARRANFORE (Knockaderry),34,94000,102900,52.1675,-9.55,1993,2001
Kerry,503,KENMARE (VOC.SCH.),12,91000,70400,51.875,-9.58333,1955,1955
Kerry,903,BALLINSKELLIGS G.S.,12,43300,65900,51.82361,-10.27361,1949,1972
Kerry,303,KENMARE (DROMORE CASTLE),27,81500,68400,51.85556,-9.71944,1874,1958
Kerry,905,CASTLEMAINE G.S.,8,83900,103300,52.16944,-9.69722,1941,1986
Kerry,4505,DEREEN,23,45800,74000,51.89667,-10.24028,1995,(null)
Kerry,505,KILLARNEY (ST.FINAN'S HOSP.),55,96400,91600,52.06667,-9.51111,1889,1988
Kerry,906,RATHMORE G.S.,162,117000,93200,52.08472,-9.21111,1941,1985
Kerry,4605,ROADS,125,53180,87365,52.01944,-10.13944,1996,(null)
Kerry,4611,TARBERT ISLAND,15,107800,149300,52.5875,-9.36111,1968,2013
Kerry,4606,RATHMORE CONVENT,168,114700,92500,52.07778,-9.24444,1969,1982
Kerry,910,KNOCKNAGOSHEL G.S.,152,106200,121100,52.33333,-9.37639,1941,1995
Kerry,509,CLOGHANE,9,51100,110800,52.22917,-10.17917,1950,(null)
Kerry,1805,GLENBEIGH G.S.,23,67100,91200,52.05694,-9.9375,1949,1988
Kerry,1803,DERRIANA,122,60400,73200,51.89333,-10.02806,1993,(null)
Kerry,4705,DOOKS,15,67900,92400,52.0675,-9.92722,1996,(null)
Kerry,305,VALENTIA OBSERVATORY (Manual),24,45799,78549,51.93806,-10.24333,1866,2012
Kerry,1810,LISTOWEL (RATHEA),91,98700,128300,52.39722,-9.48889,1948,1982
Kerry,1809,CASTLEGREGORY ROUGH POINT,11,62800,119600,52.31056,-10.01139,1984,2004
Kerry,510,LYREACRUMPANE,128,98600,123700,52.35556,-9.48889,1939,1964
Kerry,4805,CAMP (SLIABH),171,67300,106300,52.1925,-9.94111,1997,1998
Kerry,4905,CASTLEISLAND (Kilmurry),107,105900,110300,52.23667,-9.37806,1998,(null)
Kerry,5005,FARRANFORE (KILFELIM),34,96400,106000,52.19583,-9.515,2001,2001
Kerry,309,TRALEE (DROUMAVALLA),172,87400,109600,52.22639,-9.64861,1950,1984
Kerry,5105,GLENBEIGH,72,67000,91300,52.05806,-9.93889,2005,2013
Kerry,103,DERRYNANE ABBEY,4,52900,58700,51.76111,-10.13056,1871,1958
Kerry,1903,KENMARE,14,90700,71200,51.8825,-9.58806,1994,(null)
Kerry,1905,PORTMAGEE G.S.,6,37500,72800,51.88333,-10.35972,1949,1983
Kerry,5205,KNIGHTSTOWN,72,41800,77300,51.92556,-10.3,2006,2014
Kerry,1909,DINGLE (Baile na nGall),36,38600,108400,52.20361,-10.36111,1984,(null)
Kerry,1910,LIXNAW G.S.,8,90100,129100,52.40278,-9.61528,1951,1985
Kerry,5305,GLENBEIGH (Dooks),30,69245,93320,52.07694,-9.90778,2013,(null)
Kerry,1003,KILGARVAN,44,100900,73400,51.90417,-9.44028,1949,1969
Kerry,5405,CLONKEEN (Upper Coomacullin),215,110260,81030,51.97472,-9.30667,2018,(null)
Kerry,203,KENMARE (Sheen Falls),15,92500,70000,51.87222,-9.56111,1916,1993
Kerry,1005,FARRANFORE G.S.,43,94000,103400,52.17222,-9.55,1941,1991
Kerry,1010,LISTOWEL (TRANS.STN.),61,101600,132900,52.43889,-9.44722,1941,1972
Kerry,1009,TRALEE (CAHERWEESHEEN),8,84400,112100,52.25278,-9.69444,1957,1978
Kerry,2003,BLACKWATER FISHERY,40,79200,69200,51.86194,-9.75306,1999,2000
Kerry,2005,CASTLEISLAND (Glountaine),241,107800,107300,52.20972,-9.34861,1950,2004
Kerry,2010,LISTOWEL (INCH),15,95600,136400,52.46944,-9.53611,1955,2015
Kerry,2009,ARDFERT BALLYMACQUINN,6,76500,126100,52.37222,-9.81389,1985,2018
Kerry,205,KILLARNEY (The Reeks),15,83500,93700,52.08333,-9.7,1956,1957
Kerry,209,CAMP G.S.,110,69900,109400,52.22083,-9.90417,1941,1982
Kerry,6006,BALLYDESMOND,201,114900,104000,52.18139,-9.24417,1985,(null)
Kerry,2103,WATERVILLE (IVERAGH LODGE),26,50267,66743,51.833183,-10.173195,1900,1913
Kerry,2105,FARRANFORE (SCARTAGLIN),213,104700,105000,52.18889,-9.39306,1950,1971
Kerry,2109,CAMP (GLANNAGALT),110,67600,107400,52.2025,-9.93639,1993,1997
Kerry,2110,LYREACRUMPANE (CARRIGCANNON),183,97600,120600,52.32778,-9.50278,1964,1985
Kerry,6385,Cloone_Lake,105,71115,78525,51.94444,-9.875,2020,(null)
Kerry,1103,SNEEM,14,68900,66900,51.83889,-9.90278,1949,(null)
Kerry,6685,Dingle_WWTP,7,44500,100500,52.135,-10.27194,2020,(null)
Kerry,1105,KILLARNEY (Muckross For.Stn.),32,97700,88200,52.03611,-9.49167,1941,1976
Kerry,6785,Castleisland_WWTP,26,99480,109615,52.23,-9.47194,2020,(null)
Kerry,1109,TRALEE (ST.JOHN'S SCH.),12,83100,114900,52.27361,-9.7125,1969,1973
Kerry,1110,LISTOWEL G.S.,47,99000,133900,52.44722,-9.48611,1941,1983
Kerry,603,KENMARE (DERREEN),24,77100,58900,51.76944,-9.78056,1878,(null)
Kerry,2205,FARRANFORE (CLOUNLEA),177,104000,99900,52.14306,-9.40278,1950,2005
Kerry,7111,TARBERT-Kilpadogue,18,106010,147745,52.571,-9.385,2021,(null)
Kerry,2210,LISTOWEL (ST.MICHAEL'S COLL.),30,98900,134400,52.45139,-9.4875,1974,1979
Kerry,2209,BLENNERVILLE (CURRAGRAIGUE),27,81600,111500,52.24222,-9.73306,1996,2010
Kerry,605,KILLARNEY (B.V.M.PARK),34,97000,85700,52.01389,-9.5,1924,1991
Kerry,610,ABBEYDORNEY G.S.,24,85100,122800,52.34444,-9.68611,1941,1971
Kerry,609,FENIT G.S.,9,72700,115600,52.27778,-9.86528,1951,1995
Kerry,2276,Beentee Mtn,376,47581,78034,51.934074,-10.216836,(null),(null)
Kerry,2275,VALENTIA OBSERVATORY,24,45940,78555,51.93833,-10.24083,2010,(null)
Kerry,2305,TRALEE (BALLYDWYER),122,94200,114200,52.26944,-9.55,1950,1972
Kerry,8605,M.TORC MANGERTON NO.2A,427,95300,83400,51.99306,-9.525,1966,1991
Kerry,2310,LISTOWEL (GROGEEN),67,101000,132800,52.4375,-9.45556,1979,2004
Kerry,8705,M.KILLARNEY (DROMDIRALOUGH),108,102000,85800,52.01528,-9.42778,1968,1992
Kerry,8805,M.TORC MANGERTON NO.7,436,97000,83400,51.99306,-9.5,1966,1991
Kerry,8905,M.BEENREAGH MTN.,491,66100,85400,52.00417,-9.95,1949,(null)
Kerry,9005,M.BALLAGHBEAMA GAP,311,75500,78300,51.94306,-9.81111,1949,(null)
Kerry,9105,M.BALLAGHISHEEN GAP,329,67100,79000,51.94722,-9.93333,1949,1990
Kerry,9103,M.CUMMERAGH NO.1,305,61000,71700,51.88056,-10.01944,1942,(null)
Kerry,9205,M.OOLAGH MTN.,235,73700,90000,52.04722,-9.84167,1949,2010
Kerry,9203,M.CUMMERAGH NO.2,404,63400,71200,51.87639,-9.98333,1942,(null)
Kerry,9305,M.TORC MANGERTON NO.1,223,95900,83100,51.99028,-9.51528,1942,1991
Kerry,9303,M.CUMMERAGH NO.3,543,64100,70400,51.86944,-9.97361,1942,(null)
Kerry,9405,M.TORC MANGERTON NO.2,411,95500,83600,51.99444,-9.52222,1942,1978
Kerry,9403,M.CUMMERAGH NO.4,494,62000,69400,51.85972,-10.00278,1942,(null)
Kerry,9406,RATHMORE_Bounard,200,111065,94065,52.09194,-9.29833,2015,(null)
Kerry,9505,M.TORC MANGERTON NO.4,701,97900,81700,51.97778,-9.48611,1942,1991
Kerry,9503,M.CUMMERAGH NO.5,396,58200,68700,51.85278,-10.05833,1942,(null)
Kerry,1205,CASTLEISLAND (Coom),157,107400,109900,52.23333,-9.35556,1944,(null)
Kerry,9603,M.CUMMERAGH NO.6,351,63400,75100,51.91111,-9.98472,1942,1989
Kerry,9605,M.TORC MANGERTON NO.4A,518,98400,82900,51.98889,-9.47917,1942,1991
Kerry,9703,M.CUMMERAGH NO.7,649,66500,74500,51.90694,-9.94028,1942,1983
Kerry,9705,M.TORC MANGERTON NO.5,283,99600,82600,51.98611,-9.46111,1942,1992
Kerry,2405,DINGLE G.S.,6,44600,100800,52.1375,-10.26944,1950,1988
Kerry,1210,MOYVANE G.S.,62,107000,139600,52.5,-9.36944,1941,1995
Kerry,1209,TRALEE U.D.C.,12,83200,114100,52.26667,-9.71111,1975,2017
Kerry,9803,M.CUMMERAGH NO.8,52,54700,69100,51.85556,-10.10972,1942,1989
Kerry,9805,M.TORC MANGERTON NO.6,442,95600,80500,51.96667,-9.51944,1942,1991
Kerry,9903,M.CUMMERAGH NO.7A,183,62700,74000,51.90111,-9.99556,1977,1989
Kerry,9905,M.TORC MANGERTON NO.3,808,97500,81200,51.97361,-9.49167,1942,1991
Kildare,9923,Eadestown-Carters_Hill,168,295055,218160,53.20556,-6.57806,2013,2014
Kildare,10023,CELBRIDGE_Moortown,75,296540,235165,53.35806,-6.55083,2015,(null)
Kildare,2514,LULLYMORE (BORD NA MONA),84,271100,228900,53.30556,-6.93333,1945,1992
Kildare,2814,MONASTEREVAN G.S.,67,262600,210500,53.14167,-7.06389,1946,1984
Kildare,714,KILDARE (ST.BRIGID'S DEANERY),110,273200,212500,53.15833,-6.90556,1939,1952
Kildare,2914,RATHANGAN G.S.,79,267000,219600,53.22222,-6.99722,1946,1992
Kildare,414,MONASTEREVAN (DERRYLEA),64,259900,214700,53.17917,-7.10417,1951,1952
Kildare,3323,POULAPHUCA (GEN.STN.),174,294500,208600,53.11944,-6.58889,1937,2013
Kildare,423,CLANE,76,287800,227600,53.29167,-6.68333,1937,1950
Kildare,3331,TIMAHOE SOUTH,88,278700,229200,53.30722,-6.81944,1955,2006
Kildare,3414,ALLENWOOD (GEN.STN.),84,274800,227100,53.28889,-6.87778,1949,1990
Kildare,3514,KILBERRY,61,266300,199900,53.04583,-7.01111,1950,1993
Kildare,3523,KILCOCK G.S.,70,288300,240000,53.40278,-6.67222,1942,1978
Kildare,3623,NAAS (TRANS.STN.),122,288900,217100,53.19722,-6.66944,1943,1964
Kildare,3714,KILDARE G.S.,91,272900,212200,53.15556,-6.90972,1951,1992
Kildare,3823,BALLYMORE EUSTACE D.C.W.W.,172,293300,209200,53.125,-6.60556,1944,(null)
Kildare,3914,RATHANGAN (BALLYDERMOT),76,266000,221600,53.24028,-7.01111,1955,1985
Kildare,4014,ATHY (CLOSEBURN),64,266900,194700,52.99861,-7.00278,1958,1968
Kildare,4314,LULLYMORE (AGR.RES.STN.),77,269500,226200,53.28194,-6.95833,1963,1990
Kildare,4423,CELBRIDGE G.S.,62,297200,233500,53.34306,-6.54028,1949,1985
Kildare,4523,KILL G.S.,101,294000,222600,53.24583,-6.59167,1949,1993
Kildare,4723,KILCULLEN G.S.,116,283800,209300,53.12778,-6.74722,1949,1990
Kildare,1814,ATHY (VOC.SCH.),61,268600,193300,52.98611,-6.97778,1943,1981
Kildare,4923,NEWBRIDGE G.S.,94,280600,215100,53.18056,-6.79444,1949,1965
Kildare,5014,ATHY (THE MALTINGS),61,267500,193600,52.98889,-6.99444,1981,2002
Kildare,5114,ATHY (ST.JOSEPH'S TERRACE),61,268100,194500,52.99722,-6.98611,1981,2003
Kildare,5223,CLANE G.S.,73,287700,227800,53.29306,-6.68472,1952,1992
Kildare,1914,BALLYTORE G.S.,99,280000,196000,53.00833,-6.80833,1944,1990
Kildare,523,STRAFFAN HSE.,78,291600,229600,53.30833,-6.625,1883,1952
Kildare,5323,NAAS (C.B.S.),98,289600,219500,53.21806,-6.65833,1955,(null)
Kildare,5414,CASTLEDERMOT KILKEA HOUSE,85,274500,187700,52.93472,-6.89194,1983,(null)
Kildare,5423,BRANNOCKSTOWN (SALLYMOUNT),122,286900,209200,53.12639,-6.70139,1957,1971
Kildare,5614,CURRAGH RACECOURSE,117,277800,213600,53.16694,-6.83611,1984,2005
Kildare,531,TIMAHOE NORTH,88,277800,235500,53.36389,-6.83056,1950,1955
Kildare,2014,CASTLEDERMOT G.S.,82,277500,184800,52.90833,-6.84722,1944,1999
Kildare,5814,RATHANGAN BALLYDERMOT II,80,265800,221500,53.23944,-7.015,1985,1997
Kildare,114,ATHY (Cromaboo Bridge),56,268300,193000,52.98333,-6.98333,1929,1943
Kildare,6414,ATHY (CHANTERLANDS),61,268800,193200,52.98472,-6.975,1993,(null)
Kildare,6714,KILBERRY II,61,267300,198500,53.03278,-6.99722,1999,2016
Kildare,7014,ATHY (Levitstown),61,270900,187900,52.93694,-6.945,2003,(null)
Kildare,7114,MOONE (STERRICK HALL),107,277700,193700,52.98861,-6.84306,2003,2006
Kildare,7214,Lullymore_Nature_Centre,85,270500,225900,53.27889,-6.94222,2010,(null)
Kildare,7385,CURRAGH_RACECOURSE,110,277035,213770,53.169117,-6.848828,2021,(null)
Kildare,7514,MONASTEREVIN (MOORE ABBEY GARDEN,72,263031,208809,53.12639,-7.05917,1898,1918
Kildare,7723,NAAS (GOWRAN GRANGE),131,290800,215300,53.18056,-6.64167,1973,1997
Kildare,8123,CELBRIDGE (ARDRASS HOUSE),66,294300,230900,53.32,-6.58528,1981,2016
Kildare,8323,MAYNOOTH,59,293100,238100,53.38472,-6.60111,1983,1983
Kildare,614,ATHY (MOONE),98,278700,192500,52.97778,-6.82778,1935,1958
Kildare,8423,NAAS (OSBERSTOWN),84,287300,220000,53.22361,-6.69333,1985,(null)
Kildare,8523,NEWBRIDGE (OLD CONNELL HOUSE),94,281300,216000,53.18806,-6.78417,1985,1987
Kildare,8823,STRAFFAN (TURNINGS),70,291700,227000,53.28528,-6.62444,1996,(null)
Kildare,8923,NAAS (NEWLAND NORTH),93,286400,217100,53.19722,-6.70639,1996,2000
Kildare,2323,CLONGOWES WOOD COLL.,73,287700,229800,53.31111,-6.68333,1904,1966
Kildare,9323,SALLINS (KERDIFFSTOWN),91,290400,222900,53.24833,-6.64583,1999,2016
Kilkenny,2513,THOMASTOWN (KILMURRY HSE.),49,260100,144000,52.54444,-7.11389,1946,1978
Kilkenny,2613,INISTIOGE G.S.,20,264400,137500,52.48472,-7.05139,1946,1984
Kilkenny,1285,THOMASTOWN (Mt Juliet),46,254935,141785,52.525,-7.19056,2018,(null)
Kilkenny,1313,KILKENNY (CO.HOSP.),64,250000,157100,52.6625,-7.26111,1945,1967
Kilkenny,2713,KILMOGANNY G.S.,73,245600,134500,52.45972,-7.32917,1946,1980
Kilkenny,2813,TULLOGHER G.S.,128,262800,128900,52.40833,-7.07639,1946,1970
Kilkenny,713,CASTLECOMER HSE.,118,253800,172700,52.80278,-7.20278,1908,1964
Kilkenny,2913,BALLYHALE G.S.,55,254300,135300,52.46667,-7.20139,1946,1990
Kilkenny,413,CUFFESGRANGE G.S.,78,247200,150100,52.6,-7.30278,1944,1957
Kilkenny,3013,JOHNSTOWN G.S.,137,230200,166200,52.74583,-7.55278,1950,1985
Kilkenny,3113,RAILYARD G.S.,148,256100,176800,52.83889,-7.16806,1950,1969
Kilkenny,1512,PILTOWN (KILDALTON ABBEY),18,246900,122900,52.35556,-7.31111,1876,1971
Kilkenny,3613,KILKENNY,65,249400,157400,52.66528,-7.26944,1957,2008
Kilkenny,812,TEMPLEORUM G.S.,124,247800,125700,52.38056,-7.29722,1943,1955
Kilkenny,813,FRESHFORD (ST.JOSEPH,S COLL.),85,240200,163900,52.725,-7.40556,1939
Kilkenny,3813,KILKENNY (Lavistown House),58,254300,154200,52.63611,-7.19722,1962,1973
Kilkenny,3913,COON (HILL VIEW HSE.),158,259400,170200,52.77917,-7.11944,1970,1975
Kilkenny,4013,COON,178,259600,170600,52.78333,-7.11667,1975,2015
Kilkenny,4113,CALLAN (Moonarche),79,239315,142660,52.53417,-7.42139,1978,(null)
Kilkenny,4212,MULLINAVAT G.S.,56,256400,123900,52.36389,-7.17222,1946,1984
Kilkenny,4312,KILMACOW G.S.,9,257000,117100,52.30278,-7.16389,1950,1984
Kilkenny,4313,CALLAN (GREEN STREET),73,241400,143500,52.54111,-7.38972,1984,1990
Kilkenny,4413,TULLAROAN (Ballybeagh),299,233300,157800,52.67056,-7.50833,1984,2018
Kilkenny,4513,KILKENNY (Lavistown House) II,52,254320,154270,52.63722,-7.19833,1984,(null)
Kilkenny,914,GLENMORE (RAILWAY STN),30,267700,121000,52.33611,-7.00694,1946,1954
Kilkenny,4714,PAULSTOWN CASTLE,52,266000,157300,52.6625,-7.025,1966,1994
Kilkenny,4813,CALLAN (Mallardstown),70,244100,142300,52.53,-7.35,1990,2013
Kilkenny,513,TULLAROAN G.S.,142,238000,156800,52.66111,-7.43889,1944,1957
Kilkenny,4913,THOMASTOWN (Mt. Juliet),49,254900,141500,52.52222,-7.19167,1990,2015
Kilkenny,5013,DUNGARVAN (Castlefield),75,259775,148875,52.58833,-7.11889,1993,(null)
Kilkenny,5212,MOONCOIN (SILVERSPRING),15,250800,118600,52.31667,-7.25556,1960,1993
Kilkenny,5214,COOLGREANY CASTLEWARREN,262,259600,162300,52.70889,-7.11861,1982,(null)
Kilkenny,1913,URLINGFORD G.S.,122,228300,163500,52.72222,-7.58056,1946,1984
Kilkenny,5413,KILKENNY (CRAMER'S GROVE),85,252700,160900,52.69639,-7.22028,2001,2002
Kilkenny,5514,PAULSTOWN (Shankill Castle),63,266425,160090,52.68833,-7.01833,1984,(null)
Kilkenny,5613,KILKENNY (Greenshill),61,250520,156895,52.66139,-7.25417,2010,(null)
Kilkenny,5713,KILKENNY CASTLE,55,250850,155723,52.65061,-7.249287,1900,1933
Kilkenny,2013,BALLYRAGGET G.S.,76,245200,171100,52.78889,-7.33056,1946,1984
Kilkenny,5912,PILTOWN (KILDALTON AGR.COLL.),18,247700,122400,52.35139,-7.3,1971,2016
Kilkenny,2113,CORBETSTOWN G.S.,84,250500,165900,52.74167,-7.25278,1946,1983
Kilkenny,6514,GOWRAN,55,263025,153325,52.62778,-7.07,1994,(null)
Kilkenny,6814,GRAIGUENAMANAGH-Ballyogan_House,30,272040,140270,52.50944,-6.93972,2001,(null)
Kilkenny,6912,MULLINAVAT (Glendonnell),94,257500,123800,52.36278,-7.15583,1984,(null)
Kilkenny,1114,GLENMORE (RATHINURE),43,267200,120300,52.33056,-7.01389,1954,1954
Kilkenny,1113,COON (VOC.SCH.),178,259600,170600,52.78333,-7.11667,1944,1970
Kilkenny,2213,BENNETTSBRIDGE G.S.,37,255300,149100,52.59028,-7.18333,1946,1993
Kilkenny,7614,BARRAGHCORE HOUSE (GORESBRIDGE),40,268264,155960,52.65083,-6.99194,1900,1930
Kilkenny,7912,MOONCOIN (CLONMORE),15,249100,117000,52.30222,-7.28056,1993,1994
Kilkenny,2314,CASTLEWARREN (NAT.SCH.),215,260500,160100,52.68889,-7.10556,1944,1963
Kilkenny,2313,CALLAN (ST.AUGUSTINE ST.),72,241700,143500,52.54167,-7.38472,1946,1984
Kilkenny,2312,MOONCOIN (VOC.SCH.),53,251000,115800,52.29167,-7.25278,1939,1994
Kilkenny,1185,PILTOWN (Agr Coll),23,246855,122470,52.35222,-7.31306,2018,(null)
Kilkenny,9612,MULLINAVAT_Garrygaug,115,252485,125530,52.37889,-7.22917,2015,(null)
Kilkenny,2413,STONEYFORD G.S.,46,252400,143000,52.53611,-7.22778,1946,1984
Kilkenny,9813,M.THOMASTOWN FOREST,247,266300,142700,52.53194,-7.02222,1995,2012
Kilkenny,1213,KILKENNY G.S.,56,250000,156300,52.65556,-7.26111,1944,1973
Laois,2614,PORTLAOISE ESB TRAINING CENTRE,98,247100,197400,53.025,-7.29861,1946,2013
Laois,1314,PORTARLINGTON (VOC.SCH.),70,254300,212600,53.16111,-7.1875,1960,1961
Laois,1413,BORRIS IN OSSORY G.S.,113,225000,187600,52.93889,-7.62778,1946,1981
Laois,3014,STRADBALLY G.S.,91,257000,196600,53.01667,-7.15,1946,1999
Laois,3222,CLONASLEE WATERWORKS II,131,231700,210300,53.14194,-7.52667,1985,(null)
Laois,1485,PORTLAOISE WWTP,91,246500,199605,53.04,-7.305,2018,(null)
Laois,3313,ABBEYLEIX G.S.,102,243800,184700,52.91111,-7.34861,1951,1966
Laois,1513,WOLFHILL G.S.,210,260000,183600,52.9,-7.10833,1946,1969
Laois,3413,BALLACOLLA G.S.,91,237300,181400,52.88194,-7.44583,1951,1964
Laois,3513,SLIEVE BLOOM MTNS.(Nealstown),219,219900,193600,52.99306,-7.70417,1953,(null)
Laois,3713,BALLYFIN (PATRICIAN COLL.),155,238400,200700,53.05556,-7.42778,1958,1963
Laois,814,MOUNTMELLICK (ANNGROVE),82,245000,206900,53.11111,-7.32778,1941,1963
Laois,3814,PORTARLINGTON G.S.,70,254200,212400,53.15972,-7.18889,1951,1984
Laois,1613,BALLINAKILL (SALESIAN COLL.),181,247500,181600,52.88333,-7.29444,1946,1966
Laois,4213,PARKNAHOWN CULLAHILL,110,234300,173900,52.81528,-7.49167,1981,(null)
Laois,1713,DURROW G.S.,85,240800,177200,52.84444,-7.39444,1946,1990
Laois,4414,BALLYBRITTAS,90,257700,207100,53.11111,-7.13889,1964,1983
Laois,4614,PORTLAOISE (Coolnamona),122,245600,194900,53.00278,-7.32083,1966,2006
Laois,913,MOUNTRATH (BAUNREAGH FOR.),243,229400,202200,53.06944,-7.56111,1914,1969
Laois,4713,ABBEYLEIX,104,243800,184800,52.91194,-7.34917,1985,2000
Laois,113,ABBEYLEIX (Laburnum Lodge),122,244800,185300,52.91667,-7.33333,1938,1942
Laois,1813,RATHDOWNEY G.S.,102,228300,178100,52.85278,-7.58056,1946,1990
Laois,4914,EMO COURT,91,254100,206300,53.10417,-7.19167,1974,2001
Laois,5113,AUGHNACROSS,229,250300,182200,52.88833,-7.25278,1994,2003
Laois,5213,BALLACOLLA (FARREN HOUSE),116,235200,184800,52.91278,-7.47611,1996,2003
Laois,5313,BALLYROAN (Oatlands),134,245325,186195,52.925,-7.32694,2000,(null)
Laois,522,CLONASLEE W.W.,120,231800,210800,53.14722,-7.525,1943,1961
Laois,5513,DURROW,84,241200,177300,52.84472,-7.38833,2010,(null)
Laois,213,RATHDOWNEY (Voc.Sch.),102,228100,177800,52.85,-7.58333,1939,1946
Laois,7485,NEALSTOWN,220,219910,193570,52.99281,-7.7042394,2021,(null)
Laois,8385,DURROW_Castlewood,88,242225,177590,52.84794,-7.3740187,2021,(null)
Laois,613,ABBEYLEIX (BLANDSFORT),164,248200,186900,52.93056,-7.28333,1874,1981
Laois,9913,M.MOUNTRATH(BAUNREAGH FOR.),244,229200,202200,53.06944,-7.56389,1973,1994
Laois,9922,M.SLIEVE BLOOM MTNS.(THE CUT),427,229600,204700,53.09167,-7.55833,1943,1971
Leitrim,9929,M.SLIEVE ANIERIN,579,201900,315800,54.09167,-7.97083,1970,1972
Leitrim,1237,CARRIGALLEN G.S.,88,223100,302900,53.975,-7.64722,1942,2010
Leitrim,2540,ROSSINVER,32,193300,350300,54.40083,-8.10306,1984,2004
Leitrim,1240,KILTYCLOGHER,70,197700,345500,54.35833,-8.03611,1951,2003
Leitrim,1340,KINLOUGH G.S.,43,181400,355300,54.44583,-8.2875,1951,2011
Leitrim,729,LEITRIM G.S.,0,195800,304600,53.99028,-8.06389,1951,1955
Leitrim,3129,CLOONE G.S.,61,214000,299500,53.94444,-7.78611,1944,1986
Leitrim,3140,ROSSINVER ORGANIC CENTRE,53,192200,349400,54.39306,-8.12028,1997,(null)
Leitrim,1436,MANORHAMILTON G.S.,62,188400,339700,54.30556,-8.17778,1942,1981
Leitrim,3229,MOHILL (TRANS.STN.),49,209500,296400,53.91667,-7.85556,1944,1984
Leitrim,3240,KINLOUGH (EDENVILLE),55,182900,355900,54.45083,-8.26417,1999,2002
Leitrim,236,KILLARGUE G.S.,88,186400,331300,54.23056,-8.20833,1942,1955
Leitrim,3336,LOUGH GLENCAR,55,177015,342945,54.33472,-8.35417,1993,(null)
Leitrim,3337,BALLINAMORE,82,214700,313400,54.06944,-7.775,1963,2005
Leitrim,1537,GLENFARNE G.S.,70,200900,337800,54.28889,-7.98611,1942,1984
Leitrim,3737,BALLINAMORE (Creevy),73,210600,310400,54.04306,-7.83889,1968,1971
Leitrim,3837,FENAGH (FOXFIELD N.S.),76,210900,307500,54.01667,-7.83333,1971,1973
Leitrim,3929,DRUMKEERAN (VOC.SCH.),110,190600,324500,54.16944,-8.14444,1944,1987
Leitrim,3937,AUGHNASHEELAN (Miskawn),155,208500,315100,54.08472,-7.86944,1971,(null)
Leitrim,1637,KESHCARRIGAN G.S.,69,203800,307700,54.01806,-7.94167,1942,(null)
Leitrim,1729,DRUMSHANBO,54,196000,312500,54.06111,-8.06111,1893,(null)
Leitrim,1829,DROMOD (Ruskey),42,205300,286200,53.825,-7.91944,1894,(null)
Leitrim,1837,BALLINAMORE (MARYVILLE),69,213500,311500,54.05278,-7.79444,1944,1976
Leitrim,5385,BALLINAMORE,82,212880,312130,54.05833,-7.80417,2019,(null)
Leitrim,1936,DROMAHAIR (Market St.),27,180600,331500,54.23194,-8.29722,1960,(null)
Leitrim,529,CARRICK-ON-SHANNON (MONASTERY),49,194500,300100,53.95,-8.08333,1935,1948
Leitrim,5629,CLOONE(AUGHNAGLACE HOUSE),90,215700,302200,53.96889,-7.76111,1984,1993
Leitrim,5937,BALLINAMORE (CREEVY NO.2),72,210600,311200,54.04944,-7.83806,2006,(null)
Leitrim,536,DROMAHAIR,15,179900,331700,54.23333,-8.30833,1944,1960
Leitrim,6137,BALLINAMORE-Tullyoscar,55,211400,311400,54.05194,-7.82639,2009,(null)
Leitrim,6229,DRUMKEERAN VOCATIONAL SCHOOL II,76,191100,324500,54.16944,-8.13611,1987,1999
Leitrim,6237,CARRIGALLEN (Calloughs),91,222400,304100,53.98528,-7.65778,2010,(null)
Leitrim,2137,BENBRACK MTN. (POTTORE),177,207600,316200,54.09444,-7.88333,1944,1971
Leitrim,7029,MOHILL (DRUMCOLLIGAN),76,207000,298100,53.9325,-7.89361,1999,2006
Leitrim,2236,MANORHAMILTON (Amorset),76,188200,339800,54.30694,-8.18194,1981,(null)
Leitrim,1129,FARNAUGHT G.S.,57,212100,290500,53.86389,-7.81667,1944,1955
Limerick,2511,KILFINANE G.S.,190,168400,122800,52.35556,-8.46389,1943,1985
Limerick,2611,LIMERICK (O'CURRY ST.)G.S.,15,157200,156700,52.65972,-8.63333,1944,1977
Limerick,2610,ATHEA (Templeathea),122,115225,135855,52.46806,-9.24806,1985,(null)
Limerick,1310,TOURNAFULLA G.S.,160,122100,124500,52.36667,-9.14444,1943,1995
Limerick,1311,KILMEEDY (HEATHFIELD),158,139700,130100,52.41944,-8.88611,1938,1963
Limerick,2811,ADARE G.S.,8,146400,146100,52.56389,-8.79028,1951,1983
Limerick,711,DRUMCOLLOGHER G.S.,121,138700,120600,52.33333,-8.9,1943,1945
Limerick,710,ATHEA G.S.,81,112400,134900,52.45833,-9.28889,1941,1985
Limerick,410,ABBEYFEALE (SPRINGMOUNT),112,115300,128000,52.39722,-9.24444,1917,1975
Limerick,2911,ASKEATON G.S.,15,134300,150300,52.6,-8.96944,1951,1972
Limerick,411,KNOCKLONG (KILFRUSH),98,171500,133900,52.45556,-8.41944,1917,1951
Limerick,1410,ABBEYFEALE (ST.ITA'S COLL.),64,111500,126500,52.38333,-9.3,1947,1983
Limerick,3011,SHANAGOLDEN G.S.,35,125400,147300,52.57222,-9.1,1951,1981
Limerick,3019,CAPPAMORE G.S.,60,177000,151500,52.61389,-8.33889,1943,1987
Limerick,1419,GLENSTAL PRIORY,116,173700,156700,52.66111,-8.38889,1956,1959
Limerick,3111,CAHERCONLISH G.S.,64,168200,149000,52.59167,-8.46944,1951,1993
Limerick,3119,OOLA G.S.,84,182500,142200,52.53056,-8.25833,1943,1994
Limerick,3212,GALBALLY G.S.,116,179800,127600,52.4,-8.29722,1943,1985
Limerick,3211,CROOM (VOC.SCH.),34,151600,141300,52.52083,-8.7125,1951,1983
Limerick,3285,SPRINGFIELD CASTLE,101,135070,122700,52.3525,-8.95361,2019,(null)
Limerick,3310,ABBEYFEALE (Caherlane),155,112590,122980,52.35194,-9.28361,2010,(null)
Limerick,110,ABBEYFEALE (Presbytery),91,112600,126500,52.38333,-9.28333,1936,1944
Limerick,3485,CLAREVILLE WTP,17,164310,161305,52.70194,-8.52861,2019,(null)
Limerick,811,FEDAMORE G.S.,86,159500,143800,52.54444,-8.59722,1943,1952
Limerick,3711,BRUFF,80,163100,136500,52.47833,-8.54389,1952,1997
Limerick,3811,KILMEEDY G.S.,108,137600,129700,52.41528,-8.91667,1952,1995
Limerick,4111,HOSPITAL (VOC.SCH.),101,170700,135400,52.46944,-8.43056,1957,2001
Limerick,4211,SHANAGOLDEN (VOC.SCH.),30,125600,147300,52.57222,-9.09722,1960,1994
Limerick,4311,KILMALLOCK (L.GUR),91,164000,139900,52.50972,-8.53056,1961,1965
Limerick,4319,MURROE G.S.,89,173100,155300,52.64861,-8.39722,1951,2012
Limerick,4411,LIMERICK (SEXTON ST.)C.B.S.,17,157900,156500,52.65833,-8.62222,1962,1966
Limerick,4419,PALLAS G.S.,58,177200,146400,52.56806,-8.33611,1951,1967
Limerick,4511,HERBERTSTOWN (AGR.RES.STN.),94,169700,141600,52.525,-8.44583,1964,1965
Limerick,4711,ASKEATON(CLOONREASK) G.S.,17,133800,150300,52.6,-8.97778,1973,1977
Limerick,1811,PATRICKSWELL G.S.,24,152000,149800,52.59722,-8.70833,1943,1985
Limerick,511,LIMERICK (THE CRESCENT),20,157100,156200,52.65556,-8.63333,1926,1955
Limerick,4811,PATRICKSWELL (Dooneen),27,154455,149470,52.595,-8.67278,1981,(null)
Limerick,4911,CASTLEMAHON W.W.,58,131515,131260,52.42889,-9.0075,1982,(null)
Limerick,5011,LIMERICK (OLD CORK ROAD),30,159800,155100,52.64583,-8.59444,1984,1995
Limerick,5111,RATHKEALE (Duxton),90,138095,136815,52.47972,-8.91194,1984,(null)
Limerick,310,SUGAR HILL,244,119400,132600,52.43889,-9.18611,1948,1963
Limerick,1911,RATHKEALE G.S.,46,136300,141900,52.525,-8.93889,1943,1969
Limerick,311,FOYNES (VOC.SCH.),7,125500,150400,52.6,-9.1,1918,1939
Limerick,5306,MOUNT RUSSELL,195,161250,119905,52.32972,-8.56917,1984,(null)
Limerick,5411,KILFINNANE EDUCATION CENTRE,165,168000,123200,52.35972,-8.47028,1987,2000
Limerick,1011,LIMERICK (MULGRAVE ST.),29,158100,156800,52.66111,-8.61944,1895,1967
Limerick,5611,LIMERICK (GOLF CLUB),20,157500,152700,52.62361,-8.62778,1990,1995
Limerick,1985,ADARE MANOR,15,146805,144965,52.55389,-8.785,2018,(null)
Limerick,5711,NEWCASTLE WEST (Castle Demesne),61,127585,133740,52.45083,-9.16583,1992,(null)
Limerick,2011,GLIN G.S.,20,113000,147200,52.56944,-9.28333,1943,1994
Limerick,5811,MEANUS,50,158400,140200,52.51167,-8.6125,1993,2004
Limerick,5919,CASTLECONNELL,37,167805,162325,52.71139,-8.47722,1979,2018
Limerick,6011,SPRINGFIELD CASTLE,110,135215,122385,52.34972,-8.95139,1994,2019
Limerick,6085,ABBEYFEALE_WWTP,58,111026,127321,52.390495,-9.3078,2020,(null)
Limerick,6111,SHANAGOLDEN (Old Abbey),34,128010,147660,52.57583,-9.0625,1994,(null)
Limerick,6211,CROAGH (Smithfield),72,141760,143675,52.54167,-8.85917,1999,(null)
Limerick,6311,BALLYHAHILL_Glenbawn,187,118100,140700,52.51194,-9.20694,2000,(null)
Limerick,2111,NEWCASTLEWEST G.S.,60,128100,133700,52.45,-9.05833,1943,1971
Limerick,6411,ADARE MANOR,15,146900,145000,52.55361,-8.78333,2004,2017
Limerick,6419,COOGA (Lower Doon),88,181630,150790,52.60833,-8.27194,1984,(null)
Limerick,6511,KNOCKADERRY (Lissaniska),81,133315,134120,52.455,-8.98167,2014,(null)
Limerick,211,FOYNES (Coolnavee),15,124300,150400,52.6,-9.11667,1900,1944
Limerick,6911,LIMERICK (GEORGES STREET),16,157371,156683,52.65994,-8.630798,1900,1919
Limerick,7106,KILBEHENY (BALLINATONA),122,187500,115700,52.29306,-8.18333,1992,1996
Limerick,2211,BALLYNEETY G.S.,86,162900,149700,52.59722,-8.54722,1943,1990
Limerick,7606,GALTEE W.W. (LOUGHANANNA),209,187400,118000,52.31389,-8.18472,1996,2001
Limerick,611,FOYNES AIRPORT,4,124900,151400,52.60833,-9.10833,1937,1946
Limerick,2311,BALLYLANDERS G.S.,162,176500,124300,52.36944,-8.34444,1943,1985
Limerick,619,CASTLECONNELL RECTORY,0,166200,163000,52.71667,-8.5,1914,1939
Limerick,2385,MOUNT RUSSELL,196,161275,119935,52.33,-8.56889,2018,(null)
Limerick,1211,PALLASKENRY (AGRIC.COLL.),21,141700,155100,52.64444,-8.86111,1933,1973
Limerick,2411,KILMALLOCK G.S.,89,160900,127400,52.39722,-8.575,1943,1999
Longford,630,EDGEWORTHSTOWN G.S.,104,225900,271700,53.69444,-7.60833,1944,1997
Longford,1230,ABBEYSHRULE G.S.,64,223100,258900,53.57917,-7.65139,1952,1969
Longford,2829,KENAGH G.S.,72,212300,263600,53.62222,-7.81389,1944,1967
Longford,2929,NEWTOWNCASHEL G.S.,76,204000,259600,53.58611,-7.93889,1944,1986
Longford,3029,DRUMLISH G.S.,83,215500,285300,53.81667,-7.76389,1944,1964
Longford,1429,BALLINALEE (FOR.STN.),61,222700,280500,53.77361,-7.65556,1953,1963
Longford,1430,BALLYMAHON (VOC.SCH.),58,215200,257600,53.56806,-7.77083,1957,1994
Longford,1629,CLOONDRA O.P.W.,48,206000,276000,53.73333,-7.90833,1893,1996
Longford,4029,KENAGH (DERRAGHAN),59,206200,263300,53.61944,-7.90694,1951,1993
Longford,4429,LONGFORD (St.Joseph's Hospital),55,214000,274900,53.72361,-7.7875,1954,1988
Longford,4929,LANESBORO (Doire Dharog),49,204400,268900,53.66944,-7.93333,1964,(null)
Longford,1830,GRANARD SPRINGSTOWN,70,238100,280900,53.77583,-7.42167,1985,2005
Longford,5129,KENAGH (LOUGH BANNOW),61,209700,263900,53.625,-7.85278,1970,1998
Longford,5329,LONGFORD (KNOCKAHAW),85,214900,274600,53.72083,-7.775,1975,1980
Longford,5429,KENAGH BEGNAGH,46,208000,273100,53.70778,-7.87861,1983,1998
Longford,2029,CASTLEFORBES,47,209300,280000,53.76944,-7.85833,1911,1962
Longford,1030,GRANARD G.S.,136,233700,281300,53.78056,-7.48889,1944,1975
Longford,6529,DERRYCOLUMB,52,208100,261100,53.6,-7.87861,1993,1998
Longford,130,BALLYMAHON (Newcastle),61,218800,256800,53.56111,-7.71667,1904,1969
Longford,6829,TERMONBARRY,50,205500,276800,53.74083,-7.91667,1996,(null)
Longford,7229,GRANARD (Ballymore),72,230000,282400,53.79028,-7.545,2005,(null)
Longford,2329,BALLINAMUCK,90,219400,289300,53.85278,-7.70556,1930,1975
Louth,9938,M.DUNDALK (BALLYMAKELLETT),232,310600,312500,54.05,-6.31111,1915,2017
Louth,2438,DUNDALK (MT.PLEASANT),27,307200,311200,54.03889,-6.36389,1966,1973
Louth,338,GREENORE,6,322500,310700,54.03056,-6.13056,1876,1966
Louth,1238,LOUTH G.S.,37,296100,301400,53.95278,-6.53611,1943,1990
Louth,2538,DUNDALK (CASTLETOWN MT.),46,303100,308200,54.0125,-6.42778,1967,1991
Louth,2638,ARDEE (Boharnamoe),31,294194,290338,53.85417,-6.56944,1968,2020
Louth,2738,ARDEE O.P.W.,29,295800,291200,53.86111,-6.54306,1970,2011
Louth,1338,OMEATH,12,314155,316690,54.08667,-6.25639,1943,(null)
Louth,2838,TERMONFECKIN (AN GRIANAN),15,314300,279800,53.75556,-6.26667,1970,1997
Louth,2938,MELLIFONT ABBEY,183,300300,283200,53.78889,-6.47778,1975,2017
Louth,138,DUNDALK (Soldier's Point),6,308200,307800,54.00833,-6.35,1946,1959
Louth,1438,CLOGHERHEAD G.S.,23,316400,283900,53.79167,-6.23333,1943,1983
Louth,3238,CASTLEBELLINGHAM LYNNS,21,307500,295000,53.89333,-6.36389,1985,2013
Louth,3338,CLOGHER HEAD (Port),27,313300,289500,53.84278,-6.27778,1985,(null)
Louth,3438,RIVERSTOWN (Glenmore Upper),165,315500,311000,54.03556,-6.2375,1985,(null)
Louth,3538,TOGHER (Barmeath Castle),79,309700,287600,53.82639,-6.33389,1987,(null)
Louth,1538,DUNLEER G.S.,38,305700,287800,53.82917,-6.39444,1951,1990
Louth,3738,DUNDALK (KNOCKBRIDGE),59,301300,303700,53.9725,-6.45583,1991,2006
Louth,3831,DROGHEDA (KILLINEER),47,307300,277400,53.73528,-6.37444,1970,2004
Louth,438,ARDEE (LISRENNY),23,296000,295200,53.89722,-6.53889,1885,1971
Louth,1638,CARLINGFORD G.S.,14,318700,311800,54.04167,-6.1875,1951,1990
Louth,4231,DROGHEDA SAINT OLIVERS,34,306000,274800,53.71222,-6.39417,1982,1982
Louth,485,ARDEE (Bohernamoe),34,294180,290285,53.85361,-6.56944,2017,(null)
Louth,1738,HACKBALLSCROSS G.S.,69,296700,310200,54.03194,-6.52361,1951,1984
Louth,1838,ARDEE (St.Brigid's Hosp.),32,295505,290615,53.85639,-6.54944,1952,(null)
Louth,1938,BUSH (VOC.SCH.),40,318600,306800,53.99722,-6.19167,1954,1968
Louth,5780,LH_DUNDALK,10,311800,304300,53.97611,-6.29528,2000,(null)
Louth,2031,COLLON G.S.,128,300000,282000,53.77778,-6.48333,1943,1990
Louth,538,DUNDALK (Annaskeagh W.W.),61,308015,312670,54.05194,-6.35139,1914,2017
Louth,2131,DROGHEDA (TRANS.STN.),23,305800,276200,53.725,-6.39722,1943,1975
Louth,585,DUNDALK (Annaskeagh),61,308010,312665,54.05194,-6.351,2017,(null)
Louth,2138,OMEATH (ST.MICHAEL,S),3,315300,315400,54.075,-6.23889,1963
Louth,2238,ARDEE (DE LA SALLE),30,296300,290100,53.85139,-6.53611,1963,1964
Louth,1138,CASTLEBELLINGHAM G.S.,16,305900,295700,53.9,-6.38889,1943,1964
Louth,2338,DUNDALK (HEYNESTOWN RECTORY),14,303800,301400,53.95139,-6.41944,1963,1966
Mayo,2426,DELPHI LODGE II,35,84415,266050,53.626,-9.742,1993,(null)
Mayo,2427,SHRULE G.S.,32,127800,252700,53.51944,-9.08889,1941,1986
Mayo,9933,M.GLENNAMONG,30,94600,302400,53.95972,-9.60556,1971,1992
Mayo,134,BLACKSOD POINT S.W.S.,5,64600,319100,54.10278,-10.06944,1884,1956
Mayo,2434,BUNNAHOWEN (MUINGNACHREE),30,75300,327300,54.17917,-9.91083,2003,2007
Mayo,2435,KEENAGH BEG,91,102840,310680,54.03611,-9.48361,1944,(null)
Mayo,633,LOUISBURGH G.S.,9,80800,280900,53.76389,-9.80833,1942,1991
Mayo,634,BALLYCROY G.S.,21,80500,307200,54.0,-9.82222,1942,1983
Mayo,1233,MULRANY (Doughbeg),15,81105,294450,53.88583,-9.80889,1984,(null)
Mayo,635,CHARLESTOWN G.S.,69,147700,302200,53.96667,-8.79722,1942,1960
Mayo,1235,BALLYVARY G.S.,25,124400,294500,53.89444,-9.15,1942,1984
Mayo,2534,INVER,15,78600,35200,54.25139,-9.86306,2003,2005
Mayo,1234,BELLACORRICK (LACHTANVACK),95,100400,325000,54.16389,-9.525,1968,2004
Mayo,2535,CLOUGHBRACK FAR,81,110900,305300,53.98889,-9.35833,1944,1988
Mayo,133,NEWPORT HOUSE,18,98100,293900,53.88472,-9.55,1952,1953
Mayo,135,BALLINA RECTORY,25,124800,319200,54.11667,-9.15,1933,1944
Mayo,2634,BARNATRA (KNOCKNALOWER),72,81900,334200,54.24306,-9.8125,2005,2007
Mayo,2635,DERRYHILLAGH,104,108875,310255,54.03361,-9.39139,1944,(null)
Mayo,226,LOUISBURGH (Uggool),27,75600,267700,53.64444,-9.88056,1954,1956
Mayo,2727,CLAREMORRIS,69,134500,273900,53.71111,-8.99139,1943,2011
Mayo,2734,DOONCARTON,38,79345,337555,54.2725,-9.85278,2010,(null)
Mayo,2735,CASTLEBAR G.S.,41,114500,290000,53.85278,-9.3,1945,1970
Mayo,1333,CLARE ISLAND II,64,69700,286500,53.81194,-9.97861,1990,2007
Mayo,2827,BALLYHAUNIS (VOC.SCH.),98,148700,279600,53.76389,-8.77778,1944,1972
Mayo,1334,BELLACORRICK (SRAHNAKILLY),93,97500,323300,54.14861,-9.56944,1968,2004
Mayo,2826,DRUMMIN (Tawneyard),73,91175,267850,53.64917,-9.64639,2012,(null)
Mayo,1335,BALLINA (TRANS.STN.),21,125200,318900,54.11389,-9.14444,1942,1969
Mayo,2835,PONTOON (TERRYBAUN),30,118700,305100,53.98889,-9.24028,1951,1984
Mayo,2834,BALLYCROY (Knockmoyleen),107,79395,313570,54.05722,-9.8425,2012,(null)
Mayo,3035,CASTLEBAR (Burren),137,114165,296875,53.91417,-9.30694,1952,(null)
Mayo,1427,BALLYGLASS G.S.,41,123000,276900,53.73611,-9.16667,1941,1984
Mayo,234,ROSSPORT G.S.,18,82800,338400,54.28056,-9.8,1942,1953
Mayo,1433,WESTPORT (Carrabawn),56,99410,283605,53.7925,-9.52722,1993,(null)
Mayo,733,NEWPORT (SRAHMORE),15,96600,302500,53.96111,-9.575,1956,1962
Mayo,233,MALLARANNY,37,82800,296600,53.90556,-9.78333,1901,1957
Mayo,1435,BALLYCASTLE G.S.,43,110600,337400,54.27778,-9.37222,1942,1988
Mayo,1434,GEESALA,30,76300,323100,54.14167,-9.89306,1971,1983
Mayo,735,BONNICONLON G.S.,75,132800,318500,54.11111,-9.02778,1942,1988
Mayo,734,GLENAMOY G.S.,18,89900,333900,54.24167,-9.68889,1942,1986
Mayo,3235,FOXFORD (UMMOON),17,127600,299600,53.94028,-9.10278,1953,1991
Mayo,235,CASTLEBAR RECTORY,44,114500,289700,53.85,-9.3,1924,1945
