id,name,lat,lon
27316,"вдсх. Кугурлуй, 2 км, с. Нова Некрасівка, південний захід від с. Нова Некрасівка",45.291417,28.689556
38000,"р. Дунай, 94 км, м. Ізмаїл, (Кілійський рукав)",45.335833,28.793889
27270,"р. Дунай, 94 км, м. Ізмаіл, питний водозабір міста",45.338508,28.814842
38000,"р. Дунай, 94 км, м. Ізмаїл, (Кілійський рукав)",45.338889,28.806944
27316,"оз. Ялпуг-Кугурлуй, 0 км, с. Нова Некрасівка",45.341522,28.662103
38437,"водосховище Саф'яни, 0 км, с. Саф'яни",45.386722,28.890194
27314,"оз. Кагул, 0 км, ГНС Нагірне",45.386747,28.440594
27272,"р. Дунай, 20 км, м. Вилкове, питний в/з",45.401556,29.571814
38004,"оз. Катлабух, 0 км, с. Кислиця",45.405556,29.029528
38435,"Кислицький рукав, 0 км",45.434722,29.146389
27271,"р. Дунай, 48 км, м. Кілія, питний в/з",45.435156,29.264058
38002,"р. Дунай, 0 км, с. Ліски, (Соломонів рукав)",45.45375,29.508056
27319,"оз. Катлабух, 0 км, ГНС Кірова",45.461944,29.051342
27269,"р. Дунай, 163 км, м. Рені, кордон з Румунією",45.467233,28.22945
27826,"оз. Ялпуг, 1,6 км, с. Коса, 1,6 км на північний захід від с. Коса",45.472139,28.62075
27324,"р. Ташбунар, 3,6 км, автодорожній міст дороги Татарбунари-Ізмаїл",45.505433,28.922881
27323,"р. Єніка, 0,1 км, с. Першотравневе, 0,1 км, гирло, ",45.505694,29.069972
27318,"р. Карасулак, 3,7 км, с. Криничне",45.532944,28.660558
27325,"оз. Китай, 0 км, Василівська ГНС",45.534333,29.167678
27346,"оз. Сасик, 0 км, Канал Дунай-Сасик, гирло",45.548583,29.588389
27320,"оз. Катлабух, 0 км, Суворовська ГНС",45.577364,28.954722
27326,"оз. Китай, 0 км, Червоноярська ГНС",45.598119,29.214936
27321,"р. В.Катлабух, 2 км, а/д міст",45.608039,28.951161
27322,"р. М.Катлабух, 2,2 км, автодорожний  міст",45.612228,28.957817
27315,"оз. Ялпуг-Кугурлуй, 0 км, с. Оксамитне Болградського району, Болградський питний в/з",45.622511,28.62125
27317,"р. В. Ялпуг, 5,4 км, с. Табаки Болградського р-ну,  впадає в оз. Ялпуг, кордон з Молдовою ",45.729167,28.588903
27327,"р. Киргиж-Китай, 4,2 км, автодорожний міст",45.729889,29.174064
27329,"р. Аліяга, 4,8 км, автодорожний  міст",45.730861,29.182892
37866,"р. Нерушай, 29,2 км, с. Баштанівка, у межах с. Баштанівка",45.774083,29.480694
27347,"оз. Сасик, 0 км, с. Трапівка, ГНС-2",45.782583,29.690444
38524,"оз. Сасик, 0 км, с. Борисівка, (водосховище Сасик)",45.796056,29.641833
27348,"р. Сарата, 14,3 км, с. Білолісся",45.842083,29.691417
27350,"р. Когільник, 12 км, с. Новоолексіївка",45.89125,29.623611
27356,"р. Алкалія, 7 км, с. Широке ",45.980472,30.075167
27353,"р. Хаджидер, 10,1 км, с. Сергіївка",45.999361,29.964667
27328,"р. Киргиж-Китай, 49 км, с. М. Ярославець, кордон з Молдовою",46.097983,28.995199
38519,"р. Алкалія, 0 км, с. Монаші, біля села",46.174528,30.047028
27106,"Північно-Кримський канал, 91,5 км, с. Мірне, 91,5 км після ГС ПКК",46.213969,33.425241
37933,"Дністровський лиман, 0 км, смт Овідіополь, біля Палацу спорту ім.Дукова по вул. Портова 3, вплив стічних вод пяти організацій",46.24225,30.433972
27357,"р. Барабой, 17 км, с. Барабой, Санжинське вдсх., н/б'єф",46.294694,30.502556
27351,"р. Когільник, 131 км, с. Серпневе, кордон з Молдовою",46.296167,29.014361
27105,"Північно-Кримський канал, 62 км, с. Бехтери, 60 км після ГНС Краснознам’янського каналу - 4 км нижче села, Голопристанського району",46.299053,32.312725
27355,"р. Каплань, 19 км, с. Крутоярівка, кордон з Молдовою",46.345333,29.859806
27349,"р. Сарата, 94 км, с. Міняйлівка, кордон з Молдовою",46.397639,29.510778
27233,"р. Дністер, 16 км, с. Маяки, ГНС Нижньо-Дністровської ЗС",46.414722,30.261389
27233,"р. Дністер, 16 км, с. Маяки, ГНС Нижньо-Дністровської ЗС",46.415889,30.260222
27232,"р. Дністер, 20 км, смт. Біляївка, питний в/з м.Одеса",46.444,30.22
27354,"р. Хаджидер, 68 км, с. Чистоводне, кордон з Молдовою",46.470861,29.738833
27352,"р. Чага, 66 км, с. Петровка, кордон з Молдовою",46.501222,29.169611
27114,"р. Дніпро, 8 км, м. Гола Пристань, (рукав Конка)",46.537294,32.536503
27265,"р. Турунчук, 47 км, с. Троїцьке, (рукав Дністра), міст",46.546611,30.000417
27265,"р. Турунчук, 47 км, с. Троїцьке, кордон з Республікою Молдова",46.54675,30.000028
27115,"р. Дніпро, 0 км, с. Кізомис, (рукав Рвач)",46.551472,32.319947
27101,"Каховський магістральний канал, 127 км, с. Ганно-Мусіївка, 1 км Приазовської ЗС",46.559,34.853
27267,"р. Кучурган, 1 км, с. Граданиці, Кучурганське вдсх., 1 км по дамбі від села",46.585056,29.98125
27113,"р. Дніпро, 15 км, с. Дніпровське, в/з рибзаводу (рукав Кошова)",46.5921,32.475475
38663,"р. Дніпро, 0 км, м. Херсон, пониззя р. Дніпро, межа міста Херсон (район гідро.парку) (Дослідницький)",46.602722,32.571
27578,"Каховський магістральний канал, 145 км, с. Якимівське, ЕЦВ ""Західний груповий водогін, КП ""Запоріжжяводоканал""",46.638889,34.913056
38526,"Хаджибейський лиман, 0 км, с. Алтестове, за межами сесла",46.640639,30.538361
27112,"р. Дніпро, 40 км, м. Херсон, 1 км вище міста",46.670725,32.709063
38194,"р. Джекельня, 0 км, національний природний парк  ""Приазовський"" ",46.676944,35.417222
38186,"р. Малий Утлюк , 0 км, нижче скиду ТОВ ""Акімжилсервіс""",46.681111,35.153611
38188,"р. Тащенак, 0 км, м. Мелітополь, нижче скиду моторного завода ",46.685,35.228333
38646,"Березанський лиман, 0 км, в межах с. Лимани",46.690111,31.47625
27127,"р. Інгулець, 0 км, с. Садове, гирло р.Інгулець",46.696517,32.827528
27102,"р. Дніпро, 100 км, с.Цукури , НС1 Північно-Кримського каналу, 6 км нижче села",46.702933,33.409616
38226,"р. Обіточна, 0 км, м.Приморськ, 0,5 км нижче міста",46.722536,36.353022
27268,"р. Кучурган, 20 км, с. Кучургани, Кучурганське вдсх., на східному березі вдсх, 2 км нижче мосту через річку",46.723194,29.97025
27126,"р. Інгулець, 20 км, с. Дар'ївка",46.742717,32.809561
27104,"р. Дніпро, 65 км, с. Іванівка, Білозерського району, у р-ні питного в/з МКП ""Миколаївводоканал""",46.74315,33.027935
27103,"р. Дніпро, 92 км, н/б'єф Каховської ГЕС",46.758861,33.346331
38514,"Бузький лиман, 0,5 км, скид МКП ""Миколаїводоканал""",46.763722,31.942833
38198,"р. Лозоватка , 0 км, с. Новоолексіївка, 1 км нижче села",46.784217,36.172131
27266,"р. Кучурган, 6 км, с. Степанівка, впадає в Кучурганський лиман, кордон з Республікою Молдова",46.78875,29.977167
27100,"р. Дніпро, 106 км, с. Любимівка, ГНС Каховського каналу",46.791117,33.627253
38192,"р. Молочна, 0 км, м. Мелітополь, 0,5 км нижче міста",46.792333,35.378344
38528,"Тилігульський лиман, 0 км, с. Мар'янівка, у межах села",46.836,31.115
27358,"р. В.Куяльник, 8,2 км, с. Руська Слобідка",46.846944,30.581528
27359,"р. М.Куяльник, 8,1 км, с. Бараново",46.934528,30.404417
27150,"р. Південний Буг, 0,5 км, м. Миколаїв, Бузький лиман, тех. в/з Миколаївської ТЕЦ (ліва частина морського порту)",46.943619,31.989678
27580,"р. Берда, 25 км, питний водозабір з Бердянського водосховища КП ""Бердянськводоканал""",46.945556,36.853056
27167,"р. Інгул, 2 км, м. Миколаїв, вул. Набережна, 2,  старий пішохідний міст через р. Інгул",46.978089,31.994994
27125,"р. Інгулець, 83 км, Інгулецька ЗС, біля мосту через магістральний канал на трасі Снігурівка-Херсон ",47.017603,32.788652
38337,"р. Інгулець, 0 км, м. Снігурівка",47.075222,32.824167
27212,"р. Кальміус, 1 км, гирло, міст",47.1,37.571781
27124,"р. Інгулець, 124 км, с. Калінінське",47.11735,32.972727
27213,"р. Кальчик, 1 км, м. Маріуполь, місто",47.120586,37.591333
27111,"р. Дніпро, 160 км, смт. Велика Лепетиха, Рубанівська ЗС",47.141456,33.899708
38522,"р. Тилігул, 0 км, біля с. Вікторівка, міст на трасі Р-55",47.161472,30.968222
27360,"р. Тілігул, 17,5 км, смт. Березівка",47.163111,30.953806
27214,"р. Кальчик, 18 км, м. Маріуполь, вище міста,  н/б Старокримського вдсх.",47.190756,37.503108
27579,"р. Кальчик, 23 км, смт Старий Крим, Старокримське водосховище, пов.водозабір Маріупольського РВУ КП ""Вода Донбасу""",47.190833,37.503056
38349,"р. Висунь, 25 км, 25 км від гирла (впадіння в річку Інгулець), в районі містка",47.219153,32.832631
38201,"р. Берда, 0 км, біля с. Титове, Більмацького р-ну, нижче скиду НДО АТ ""Українська залізниця"" Філія ""Центр управління промисловістю"" ВП ""Трудівський кар'єр""",47.219722,36.641389
38190,"р. Молочна, 0 км, м. Токмак, 1,0 км нижче міста",47.224092,35.633356
38520,"р. В.Куяльник, 0 км, біля с.Петроверівка, міст а/с  Одеса-Київ",47.26475,30.310278
38475,"р. Південний Буг, 51 км, м. Нова Одеса , скид  з КП ""Прибузьке""",47.280028,31.778583
27149,"р. Південний Буг, 50 км, с. Ковалівка, Південно-Бузька ЗС",47.280344,31.778547
38228,"Калинівське водосховище, 0 км, Дамба (Калинівське водосховище)",47.290828,34.861353
27110,"р. Дніпро, 175 км, с.Золота Балка, Золотобалківська ЗС, 10 км нижче села",47.336044,33.881511
27108,"р. Дніпро, 276 км, с.Балки, ГНС Північно-Рогачицької ЗС, Василівського р-ну",47.411,34.952
27123,"р. Інгулець, 210 км, с. Архангельське",47.42715,33.400711
27612,"р. Інгул, 103 км, с. Отрадне, питний водозбір м. Баштанка",47.434956,32.313578
27089,"р. Дніпро, 312 км, м. Запоріжжя, 500 м нижче скиду ЦОС-1 КП ""Водоканал"" (лівий берег р.Дніпро)",47.45,35.1
27090,"р. Дніпро, 312 км, м. Запоріжжя, 500 м нижче скиду ЦОС-2 КП ""Водоканал"" (правий берег р.Дніпро)",47.47,35.07
27264,"р. Ягорлик, 20,2 км, с. Артирівка, кордон з Молдовою",47.470472,29.35975
27166,"р. Інгул, 100 км, с. Привільне, Інгульська ЗС",47.493014,32.302856
38512,"р. Інгул, 0 км, у межах села Привільне, міст на р. Інгул ",47.493028,32.302556
27092,"р. Дніпро, 253 км, м. Енергодар, вплив Запорізької АЕС",47.509,34.512
27097,"р. Дніпро, 195 км, смт. Нововоронцовка -Ушкалка",47.509092,33.927811
27093,"р. Дніпро, 254 км, став-охолоджувач Запорізької АЕС",47.51,34.554
27109,"р. Дніпро, 220 км, с. В.Тарасівка, ГНС Верхньотарасівської ЗС, Запорізького р-ну",47.528,34.864
27148,"р. Південний Буг, 97 км, м. Вознесенськ, пит.в/з м. Вознесенськ, 2 км до в'їзду у м. Вознесенськ по трасі з м. Миколаїв",47.537856,31.377017
27095,"р. Дніпро, 228 км, м. Нікополь, питний в/з",47.548928,34.398683
27091,"р. Дніпро, 256 км, м. Енергодар",47.55,34.692
27161,"р. Мертвовод, 2 км, 1 км вище залізн. мосту через  р. Мертвовод",47.558494,31.337928
27098,"р. Дніпро, 196 км, с. Марיянське, ГВС каналу Дніпро-Кривий Ріг",47.564847,33.918789
27096,"р. Дніпро, 201 км, м.Покров, питний в/з ",47.574019,34.116556
38217,"р.Конка (Кінська), 0 км, Нижче скиду КП ""Оріхівський Водоканал"" ОМР Оріхівський район",47.582478,35.769536
27094,"р. Дніпро, 245 км, м. Марганець, питний в/з",47.590297,34.474808
27122,"р. Інгулець, 265 км, с. Андріївка",47.603144,33.212303
38347,"р. Висунь, 0 км, с. Лагодівка",47.616028,32.962556
27577,"р. Дніпро, 219 км, с.Придніпровське, КП ""Дніпро"" Придніпровської с/р",47.616219,34.486675
38570,"р. Дніпро, 0 км, Питний в/з КП ""Біленьке"" Біленьківської ТГ Запорізького р-ну",47.62045,35.05102
38351,"р. Б. Добра , 0 км, с. Новоюр'ївка",47.622611,32.680971
27107,"р. Дніпро, 290 км, с.Приморське, ГНС Первомайської ЗС",47.645,35.271
27147,"р. Південний Буг, 136 км, у межах с. Олександрівка , Олександрівське вдсх.",47.7027,31.2548
27165,"р. Інгул, 163 км, смт. Новий Буг, Софіівське вдсх., питний в/з селища",47.703761,32.376436
27147,"р. Південний Буг, 136 км, с. Олександрівка, Олександрівське вдсх.",47.710933,31.249608
38586,"р. Інгулець, 0 км, м. Інгулець, м. Інгулець",47.729492,33.245658
38584,"р. Інгулець, 0 км, с.Латівка, с.Латівка, міст",47.770522,33.256189
27099,"канал Дніпро-Кривий Ріг, 43 км, Південне в-ще, питний в/з ",47.781611,33.556506
27088,"р. Дніпро, 312 км, м. Запоріжжя, ГНС Запорізької ЗС",47.783,35.16
38582,"р. Інгулець, 0 км, м.Кривий Ріг, м.Кривий Ріг, вул. Суботня, південна околиця міста",47.792664,33.248686
27164,"р. Інгул, 179 км, с. Розанівка, сільгосп. в/з, кордон Кіровоградської і Миколаївської обл.",47.796453,32.561405
38215,"р.Мокра Масковка, 0 км, ж/д міст, м.Запоріжжя ",47.803161,35.169244
27160,"Балка Ташлик, 6 км, Ташлицьке вдсх., став-охолоджувач ПУ АЕС (міст через Ташлицьке вдсх., південь м. Південно-Українськ)",47.807522,31.205753
27076,"р. Дніпро, 328 км, м. Запоріжжя, в/б'єф Дніпровської ГЕС, питний в/з міста",47.818,35.1
38580,"р. Інгулець, 0 км, м.Кривий Ріг, м.Кривий Ріг, вул. Переслівська",47.831994,33.340114
27146,"р. Південний Буг, 153 км, с. Олексіівка, питний в/з м. Південно-Українськ",47.868789,31.119731
38234,"Златоустівське водосховище, 0,9 км, с. Златоустівка, верхній б'єф Златоустівського водосховища",47.8733,33.72985
38334,"р. Інгулець, 325 км, м. Кривий Ріг, гідрологічний пост, 12 км нижче греблі Карачунівського водосховища, в створі металічного пішохідного мостика",47.884153,33.341991
27120,"р. Інгулець, 335 км, м. Кривий Ріг, Карачунівське в-ще, питний в/з міста",47.907642,33.283538
38174,"р. Гайчур, 7,5 км, с. Андріївка, гідрологічний пост р. Гайчур, північно-західна околиця села",47.914319,36.180122
38330,"р. Саксагань, 5,3 км, м. Кривий Ріг, Саксаганське водосховище, район водоскидної споруди",47.924497,33.389178
27087,"р. Дніпро, 336 км, с. Володимирка, ГНС Шевченківської ЗС",47.929,35.12
27153,"р. Кодима, 103 км, м. Балта, сільгосп. в/з",47.934528,29.626278
27632,"р. Тиса, 942 км, с. Ділове, кордон з Румунією",47.937292,24.17825
38501,"р. Мертвовод, 0 км, вище с. Крива Пустош",47.93825,31.724444
27276,"р. Тиса, 912 км, смт. Солотвино, кордон з Румунією",47.939225,23.876192
38578,"р. Інгулець, 0 км, с. Кудашівка, с. Кудашівка (вплив приток Боковенька та Бокова)",47.945917,33.153444
27275,"р. Тиса, 927 км, смт. В. Бичків, в/з, автомат.г/мет станц.",47.967469,24.008311
27782,"р. Шопурка, 0,2 км, смт В. Бичків,  0,2 км, смт В. Бичків, Рахівський район, автодорожний міст",47.968711,24.007944
27281,"р. Шопурка, 1 км, смт В.Бичків, гирло",47.968906,24.007814
27262,"р. Білоч, 15 км, с. Шершенці, кордон з Молдовою",47.989095,29.008031
27784,"р. Апшиця, 2 км, с. Грушево, 2 км, с. Грушево, Тячівський район, автодорожний міст",47.999531,23.784589
27282,"р. Тересва, 1 км, с. Тересва, гирло",48.000483,23.675814
38576,"р. Інгулець, 0 км, с. Мар'янівка, с. Мар'янівка (вплив хвостосховища ЦГЗКа",48.001944,33.297055
27277,"р. Тиса, 882 км, м. Тячів, питний в/з, АІВС якості***",48.004981,23.575919
27287,"р. Тиса, 824 км, ст. Клиново, канал Клиновський, ",48.011689,23.039917
27303,"р. Сірет, 418 км, с. Черепківці, міст, прикордонна зона з Румунією",48.01423,25.96489
37998,"р. Серетель, 15 км, смт Красноїльськ, скид з Красноїльського ДОКу",48.01775,25.604556
27787,"р. Мартош, 1 км, м. Тячів, 1 км, м. Тячів, Тячівський раон, автодорожний міст",48.020469,23.552364
38232,"р. Кам'янка, 66,3 км, центрально-південна околиця с. Вишневе, водопропускна споруда",48.025947,33.838683
37937,"р. Тиса, 957 км, с. Вільховатий, пішоходний міст ",48.027294,24.170589
27086,"р. Дніпро, 337 км, с. Грушевка, ГНС Вільнянської ЗС",48.029,35.137
38590,"р. Саксагань, 0 км, м.Кривий Ріг, м.Кривий Ріг, Дніпропетровська обл.",48.031211,33.502018
38465,"р. Південний Буг, 0 км, с. Мигія, нижче м. Первомайськ , (Олександрівське водосховище), Національний природний парк ""Бузький Гард""",48.032194,30.952167
27121,"р. Інгулець, 348 км, с. Чкаловка, район автомобільного мосту",48.037847,33.2776
27145,"р. Південний Буг, 206 км, м. Первомайськ, Первомайське вдсх.",48.038983,30.837531
27288,"р. Тиса, 807 км, смт. Вілок, канал Батар, в/з ЗС",48.039164,22.946075
27274,"р. Тиса, 964 км, м. Рахів, вплив скиду Рахівського ВУЖКГ",48.039917,24.177558
27788,"р. Теребля, 1 км, смт. Буштино, 1 км, смт. Буштино,  Тячівський район, автодорожний міст",48.041167,23.490897
38548,"р. Котовець, 3,3 км, с. Опришени, комунальний скид",48.041667,26.0125
27283,"р. Теребля, 1 км, смт. Буштино, гирло",48.041678,23.490489
37996,"р. Малий Сірет, 2,4 км, с. Сучевени, комунальні скиди",48.0475,25.839806
27820,"р. Сірет, 439 км, с.Петричанка, 439 км, с.Петричанка, скид стічних вод Петричанського психоневрологічного будинку-інтернату",48.0475,25.883333
27083,"р. Вовча, 193 км, с. Іскра, міст, кордон Донецької і Дніпропетровської обл.",48.050892,36.584722
27273,"р. Тиса, 965 км, м. Рахів, автомат.гідромет.станція",48.053175,24.205572
27263,"р. Окни, 28 км, с. Лабушне, кордон з Молдовою",48.058639,29.137472
38616,"р. Дунай, 0 км, с. Лопушна, Чернівецька область",48.065217,25.2792
27286,"р. Тиса, 831 км, с. Юлівці, канал Тарна-Маре",48.065336,23.104831
27170,"р. Сухоклія, 26 км, м.Бобринець, питний в/з ",48.076489,32.189093
27278,"р. Тиса, 831 км, м. Виноградів, відомчий гідропост",48.081,23.053
27085,"р. Дніпро, 357 км, с. Дніпровське, ГНС Жовтневої ЗС, Вільнянського р-ну",48.082,35.069
27154,"р. Синюха, 10 км, м. Первомайськ, питний в/з міста",48.090375,30.815531
27279,"р. Тиса, 807 км, смт.Вілок, кордон з Угорщиною",48.096456,22.837153
37984,"р. Дерелуй, 30 км, смт Глибока,  вплив стічних вод Глибоцького ВУЖКГ ",48.101417,25.938
27082,"р. Вовча, 310 км, с.Карлівка, Карлівське вдсх, н/б",48.114528,37.488542
38423,"р. Білий Черемош, 1 км, с. Шпетки, комунальні скиди",48.118778,24.990417
38343,"р. Бокова, 0 км, с.Гурівка",48.128014,33.100339
27778,"р. Чорна Тиса, 10 км, с. Кваси,  10 км, с. Кваси, Рахівський район, автодорожний міст",48.133161,24.275919
38405,"р. Батар, 50 км, с. Черна, Берегівський район , автодорожний міст",48.136203,23.187953
27610,"р. Південний Буг, 237 км, питний водозабір смт Побузьке",48.139,30.603
27304,"р. Сірет, 448 км, м. Сторожинець, в/з",48.15054,25.71462
27074,"р. Дніпро, 372 км, с.Воронове, питний в/з водоводу ДМП ВКП ""Дніпро-Західний Донбас""",48.154706,35.202486
38172,"р. Солона, 24,2 км, с. Новопавлівка, гідрологічний пост р. Солона, східна околиця села, орієнтовно 1 км",48.156797,36.827844
27814,"р. Чорний Черемош, 18 км, селище Верховина, 18 км, селище Верховина, вплив стічних вод Верховинського ВКП",48.157,24.840058
27231,"р. Дністер, 550 км, с. Цикинівка, Ямпільський р-н, Вінницької обл. кордон з Молдовою, лівий берег, після скиду з очисних споруд м. Сороки (Молдова)",48.16225,28.3099
27285,"р. Боржава, 7 км, с. Бене, міст",48.162647,22.771164
27119,"р. Інгулець, 373 км, с. Іскрівка, нижче впадіння р. Жовта",48.163468,33.377875
37992,"р. Мигівка, 476 км, с. Мигово, вплив стічних вод впадіння р. Сірет (комунальні скиди пансіонатів)",48.171556,25.407194
27790,"р. Хустець, 1 км, м. Хуст, 1 км, м. Хуст, Хустський район, автодорожний міст",48.171822,23.274133
27075,"р. Дніпро, 365 км, с. Військове, питний в/з Солонянського району",48.174839,35.172567
27833,"р. Тиса, 849 км, с. Крива, с. Крива, Хустський район, автодорожний міст",48.176564,23.255078
27284,"р. Ріка, 1 км, м. Хуст, гирло, міст",48.180781,23.270228
37968,"р. Сірет, 481 км,  смт Берегомет, вплив стічних вод Комунальні скиди Вижницький ДОК",48.181361,25.406278
27310,"р. Прут, 712 км, с. Тарасівці, (міст) – Орофтяни, прикордонна зона з Румунією",48.18574,26.33287
38397,"р. Гашпарка, 8 км, нижче  с. Велика Копаня, Берегівського  району, автодорожний міст",48.195272,23.144958
38180,"р. Солона, 8,5 км, смт Солоне, південно-західна околиця, нижче автодорожнього моста",48.198611,34.846389
27798,"р. Сальва, 22 км, с. Букове, 22 км,  вище с. Букове, Виноградівський раон, автодорожний міст",48.198675,23.091331
38455,"р. Прут, 718 км, с. Маршинці (міст), кордон з Румунією",48.199722,26.295444
38433,"р. Мольниця , 0,7 км, с. Молниця, комунальний скид",48.202556,26.234444
37990,"р. Рингач , 2,9 км,  с. Маршинці, забруднення від садів, Тарасовецька Птахофабриа",48.205528,26.320722
38546,"р. Динівці, 0,8 км, с. Ванчинець, вплив стічних вод",48.21,26.431944
38164,"р. Вовча, 89,8 км, смт Васильківка, гідрологічний пост р. Вовча, на 417 м нижче залізничного мосту Дніпро-Донецьк",48.211906,36.002094
37988,"р. Рокитнянка, 2 км, м. Новоселиця, забруднення від садів",48.217694,26.275556
27311,"р. Прут, 697 км, с. Костичани, кордон з Румунією та Молдовою, 200 м нижче впадіння в р. Прут р. Черлена",48.21773,26.4982
38429,"р. Віца, 2,3 км, с. Маморниця , скид ПП ""Колос""",48.218111,26.101861
38345,"р. Боковенька , 0 км, с. Зелений Гай",48.221333,32.840806
37994,"р. Міхідра, 1,1 км, с. Нова Жадова, комунальні скиди",48.225583,25.53875
27296,"р. Верке, 21 км, м. Берегове, 21 км. Берегове, Берегівський район, автодорожний міст",48.225992,22.643689
27573,"р. Саксагань, 65 км, с. Макорти, Макортовське водосховище, питний водозабір КП ПМР ""Житлокомплекс""",48.227072,33.772239
38341,"р. Жовта, 0 км, с. Ганнівка",48.236197,33.459797
38401,"р. Лазещина, 14 км, вище с. Лазещина, Рахівський район, (референційні умови)",48.238967,24.431639
38379,"р. Дністер, 566,3 км, нижче скиду ДП «Ямпільводоканал» КП «Вінницяоблводоканал», кордон з Молдовою",48.242222,28.308361
27793,"р. Боржава, 32 км, с. Великі Комяти, 32, км., с. Великі Комяти,  Виноградівський район, автодорожний міст",48.246344,22.993431
27371,"р. Прут, 653 км, м. Ліпкани (Республіка Молдова), міст",48.253182,26.802528
38431,"р. Хуків, 2,5 км, с. Бояни, комунальні скиди з пансіонатів, забруднення від садів УНДС Карантину рослин ",48.254333,26.120722
27309,"р. Прут, 759 км, с. Магала, 759 км, с.Магала, вплив стічних вод КП ""Чернівціводоканал""",48.26013,26.62998
27802,"р. Косино-Бовтрадський, 7 км, с. Косонь, 7 км, с. Косонь, Берегівський район, автодрожний міст",48.260792,22.498744
37986,"р. Дерелуй, 0,5 км,  с. Остриця, комунальні скиди",48.265611,26.043444
27204,"р. Казений Торець, 134 км,  с.Гродівка,  витік міста Красноармійського р-ну ",48.266667,37.511283
38421,"р. Прут, 746 км, с. Магала , Кемпінг скид з Чернівецького водоканалу",48.288861,25.999778
37935,"р. Чорна Тиса, 37 км, с. Чорна Тиса, вище впадіння р. Станіслав Рахівський район, автодорожний міст",48.295264,24.362122
27796,"р. Іршава, 13 км, с. Лоза, 13 км, с. Лоза, Іршавський район, автодорожний міст",48.296808,23.030844
27158,"р. Чорний Ташлик, 51 км, смт Помічна, питний в/з селища",48.300028,31.377667
27158,"р. Чорний Ташлик, 51 км, смт. Помічна, питний в/з селища",48.300047,31.378428
37980,"р. Клокучка, 1,2 км,  м. Чернівці, вул. Севастопольська, комунальні скиди",48.304139,25.92675
37961,"водосховище Роман Потік, 2 км,  с. Горбок, Мукачівський район",48.308903,22.880061
38510,"р.Кам'янка, 7 км, КП ""Новгородківська лінійна дільниця каналізаційного господарства""",48.309694,32.521
27780,"р. Чорна Тиса, 42 км, с. Чорна Тиса, 42 км, вище с. Чорна Тиса, Рахівський район (референційні умови)",48.315597,24.3216
38427,"р. Глинниця , 4 км, с. Драчинці ,  комунальний скид",48.318278,25.70625
27129,"р. Жовта, 22 км, нижче скиду ТОВ ""Восток-Руда""",48.320997,33.524447
27308,"р. Прут, 772 км, с.Ленківці, в/з м. Чернівці, лівий берег, 500 м вище мосту по дорозі на Чернівці",48.3213,25.89839
37966,"р. Прут, 941 км, присілок Вербівський  Яремчанська міська рада, вплив стічних вод КП ""Селищне комунальне підприємство"" сел. Ворохта ",48.321806,24.584972
37982,"р. Шубранець, 3 км, м. Чернівці, р-н Старої Жучки, вплив стічних вод, впадіння р. Задубрівка",48.323139,25.946528
27144,"р. Південний Буг, 316 км, м.Гайворон, Гайворонське вдсх.",48.328333,29.866944
27128,"р. Жовта, 24 км, с. Мар'янівка, вище скиду ТОВ ""Восток-Руда""",48.329028,33.534764
27118,"р. Інгулець, 393 км, смт Петрово, Іскрівське вдсх., питний в/з  селища",48.334825,33.262072
27812,"р.Прутець-Яблуницький , 1 км, с.Татарів, 1 км, с.Татарів, скид зворотних вод ТОВ ""Буковель"" та готельно-відпочинкових комплексів с.Поляниця",48.3397,24.56595
38184,"р. Мокра Сура, 11,9 км, с. Новоолександрівка, вище автодорожнього мосту в селі , лівий берег",48.340722,35.025639
27157,"р. Чорний Ташлик, 89 км, с. Звірівка, Новоукраїнського району",48.347439,31.475736
37974,"р. Совиця, 3 км, с. Лужани, Кіцманський район, стави, комунальні скиди, Лужанський спитзавод",48.351611,25.789333
38236,"Макортовське водосховище, 0 км, с. Саївка, міст",48.352778,33.861722
37963,"водосховище Форнош, 2 км,  с. Форнош, Мукачівський район, рамсарські водно-болотні угіддя ",48.354692,22.752328
38425,"р. Брусниця, 1,3 км, с. Зеленів , антропогенне навантаження",48.357861,25.639472
27598,"р. Кривий Торець, 56 км, м. Торецьк, нижче скиду Фенольного заводу",48.358175,37.818978
37959,"водосховище Мочила, 2 км, с. Пістрялово, Мукачівський район",48.362544,22.809394
37941,"Теребле-Ріцьке водосховище, 52 км, с. Вільшани, Хустський район, гребля",48.364844,23.631572
27816,"р. Волиця, 1 км, с. Рибне, 1 км, с. Рибне, вплив стічних вод водокористувачів",48.365694,25.301842
37957,"водосховище Бабічка, 2 км,  с. Залужжя, Мукачівський район",48.367639,22.855081
37978,"р. Совиця, 7 км, с. Мамаївці, Кіцманський район, скиди Дьолера (Букофрут)",48.368611,25.819056
38182,"р. Мокра Сура, 110,8 км, смт Кринички, гідрологічний пост, центральна частина селища, 430 м нижче автодорожнього мосту",48.37185,34.460064
27307,"р. Прут, 790 км, смт. Неполоківці,, кордон Ів.-Франківської і Чернівецької обл.",48.37221,25.64033
27143,"р. Південний Буг, 327 км, с. Ставки, кордон Вінницької та Кіровоградської обл.",48.3725,29.778889
27081,"р. Бик, 55 км, с. Каменка, кордон Донецької і Дніпропетровської  обл.",48.372856,36.852961
38499,"р. Плетений Ташлик, 0 км, с. Войнівка, Ландшафтний заказник ""Войнівський""",48.3749,31.4927
27159,"р. Плетений Ташлик, 2 км, с. Новоолександрівка, технічний водозабір ",48.374978,31.493153
27307,"р. Прут, 790 км, смт Неполоківці,, кордон Ів.-Франківської і Чернівецької обл.",48.38,25.621111
38497,"р. Добра, 25 км, смт Добровеличківка, Добровеличківський район, скид КП ""НІЛОТ"" ",48.384611,31.173917
37939,"р. Теребля, 54 км, с. Меришор, Хустський район , автодорожний міст",48.407925,23.676333
27289,"р. Тиса, 714 км, ст. Єсень, канал Чаронда, в/з ЗС",48.408694,22.278189
27073,"р. Дніпро, 404 км, м. Дніпро, ВП ""ПдТЄС"" ПАТ ""ДТЕК Дніпроенерго"", питний  в/з",48.411528,35.102308
38176,"р. Мала Терса, 12,4 км, с. Троїцьке, гідрологічний пост р. Мала Терса,північно-східна околиця села, 1,2 км нижче автодорожнього мосту",48.413264,35.873172
27280,"р. Тиса, 624 км, м. Чоп, кордон з Угорщиною",48.413503,22.171906
37976,"р. Совиця, 11 км, м. Кіцмань, вплив січних вод Кіцманського ВУЖКГ",48.414306,25.792333
38506,"р. Інгул, 294 км, Кропивницьке ВКГ ОКВП ""Дніпро-Кіровоград"" , ДП ""СхідГЗК"" Інгульська шахта",48.426111,32.369166
37943,"р. Чаронда-Латориця, 2 км, с. Червоне, Ужгородський район, автодорожний міст",48.429208,22.269881
27163,"р. Інгул, 305 км, с. Первозванівка, нижче скиду, ДП ""Схід-ГЗК"" Інгульської шахти та КП ""Кіровоградське ВКГ"" ",48.430011,32.359977
27208,"р. Клебан Бик, 2 км, селище Клебан-Бик, Клєбан-Бикське вдсх, н/б'єф",48.436394,37.768864
27596,"р. Бичок, 2 км, нижня ділянка в межах ЛРП ""Клебан-Бик""",48.436806,37.771842
27208,"р. Клебан Бик, 2 км, Клєбан-Бикське вдсх, н/б'єф",48.436983,37.77
38377,"р. Дністер, 630 км, нижче скиду Могилів-Подільське МКП «Водоканал», кордон з Молдовою",48.43725,27.801306
27291,"р. Латориця, 111 км, м. Мукачево, авт.гідромет.станція",48.437278,22.688089
38415,"р. Сокиряни, 11,7 км, м. Сокиряни, скид Сокирянська виправна колонія №67",48.439389,27.425583
27305,"р. Прут, 914 км, м. Яремче, лів. берег.",48.439953,24.547031
37945,"р. Латориця, 87 км, нижче с. Нове Давидково, Мукачівський район, автодорожний міст",48.441294,22.543264
38213,"р. Суха Сура, 36 км,  нижче греблі Баглійського (нижнього) водосховища",48.443789,34.586364
27230,"р. Дністер, 631 км, м. Могилів – Подільський, (міст), Вінницька обл., митний перехід з Республікою Молдова",48.444328,27.790794
27618,"р. Жонка, 3 км, питний водозабір, ВУВКГ м. Яремче",48.445306,24.53605
37947,"р. Латориця, 103 км, м. Мукачево, Мукачівський район, автодорожний міст",48.448969,22.725939
27292,"р. Латориця, 65 км, м. Чоп, питний в/з, кордон з Словаччиною",48.455792,22.209561
27305,"р. Прут, 896 км, м. Яремче, лів. берег.",48.459167,24.565
38156,"р. Бик, 1,5 км, смт Петропавлівка, перехрестя вул. Леніна-вул. Іванової-Кадомцевої",48.466708,36.429428
37923,"р. Сурша , 11 км, с.Ленківці, скид стічних вод, Кельменецький ВУЖКГ",48.477833,26.818333
27169,"р. Сугоклія, 4 км, м. Кіровоград",48.482503,32.255316
38154,"р. Бик, 0 км,  с. Ганнівка",48.482556,37.118806
38508,"р. Сугоклія, 313 км, м. Кропивницький, парк Перемоги",48.483028,32.255
38152,"р. Самара, 4,4 км, Самарська затока, правий берег, 420 м вище залізничного мосту",48.484942,35.156131
37953,"р. Стара, 17 км,  с. Зняцево, Мукачівський район, автодорожний міст",48.490975,22.526261
27229,"р. Дністер, 658 км, с. Наславча, кордон з Молдовою, н/б'ф Нижньодністровської ГЕС",48.491594,27.578839
27071,"р. Дніпро, 420 км, м. Дніпро, правий берег, Кайдакський питний в/з",48.492083,34.950228
38286,"р. Кривий Торець, 0 км, вище м. Костянтинівка",48.501222,37.738444
27072,"р. Дніпро, 420 км, м. Дніпро, лівий берег, Ломовський питний в/з",48.506717,34.970792
38413,"р. Юрківка, 14,1 км, с.Юрківці , скид вод ферма ""Приміщення для вирощування свиней""",48.508306,25.940056
38158,"р. Тернівка, 3,9 км, с. Богданівка, гідрологічний пост р. Велика Тернівка, на 37 м вище автодорожнього мосту",48.508931,36.080036
38144,"р. Самара, 248,9 км, с. Коханівка, гідрологічний пост р. Самара , південна околиця села, на 10 км вище гирла р. Бик",48.51255,36.441797
27818,"р. Совиця, 900 км, м.Заставна, 900 км, м.Заставна, вплив стічних вод Заставнівського ЖЕУТВЗ",48.514167,25.821389
38118,"р. Самоткань, 0 км, м. Вільногірськ, нижче міста (вплив кар'єрів)",48.5206,34.0886
27306,"р. Прут, 867 км, м. Коломия, в/з питний, лів. берег",48.521758,25.017614
27142,"р. Південний Буг, 372 км, с. Глибочок, Глибочекське вдсх.",48.523889,29.391389
27084,"р. Вовча, 25 км, м. Павлоград",48.524864,35.859575
27313,"р. Любіжня, 2 км, смт. Делятин, лів. бер., 20 м вище мосту",48.529514,24.618806
27297,"р. Уж, 80 км, смт. В. Березний ",48.533,22.277
27162,"р. Інгул, 318 км, м. Кропивницький, питний в/з міста",48.533914,32.238956
27806,"р. Солотвинський, 8 км, с. Нижнє Солотвино, 8 км, с. Нижнє Солотвино,  Ужгородський район, автодорожний міст",48.541844,22.444244
27084,"р. Вовча, 25 км, м. Павлоград, нижче міста",48.543611,35.831111
27224,"р. Дністер, 826 км, м. Хотин, в/з, лівий берег, 600 м вище мосту дороги Чернівці-Камян.-Под.",48.54735,26.48316
27626,"р. Волівчик, 0 км, 5 км вище смт. Воловець, питний водозабір",48.547778,23.498611
27295,"р. Свалявка, 1 км, м. Свалява, гирло",48.548158,22.981167
27290,"р. Латориця, 139 км, м. Свалява, авт.гідромет.станція",48.553261,22.980414
38473,"р. Прут, 864 км, с. Шепарівці, питний водозабір м.Коломия, КП ""Коломияводоканал""",48.553683,24.951406
27369,"р. Бахмутка, 55 км, вище м. Бахмут",48.559,38.024
27080,"р. Самара, 4 км, м. Підгороднє, ГВС-2 магістрального каналу Фрунзенського МУВР",48.559161,35.102467
27225,"р. Дністер, 783 км, м. Кам'янець-Подільський, Дністровське вдсх., питний водозабір міста",48.559347,26.624906
38318,"р. Лімниця, 105 км, с.Осмолода, Рожнятівський р-н , Ландшафтний заказник місцевого значення ""Ріка Лімниця з водоохоронною смугою вздовж берегів шириною 100 м""",48.560458,24.014539
37951,"р. Віче, 0,2 км,  с. Неліпино, Мукачівський район,  автодорожний міст",48.560603,23.029269
27293,"р. Вича, 1 км, м.Свалява, вище міста, гирло",48.560644,23.029158
27804,"р. Піня, 1 км, с. Голубине, 1 км, нижче с. Голубине,  Свалявський район, автодорожний міст",48.563494,22.962906
27294,"р. Піня, 1 км, м. Свалява, гирло",48.566736,22.966017
37972,"р. Чорнява, 22,5 км, с.Хомяківка, Коломийський район, вплив стічних вод Гвіздецького ККП",48.570389,25.291389
37955,"р. Това, 9 км, с. Баранинці, Ужгородський район, пішоходний міст ",48.570958,22.3267
38146,"р. Самара, 139 км, м. Павлоград, гідрологічний пост р. Самара, на 40 м вище залізничного мосту Павлоград - Лозова",48.572497,35.870758
27168,"р. Грузька, 4 км, Лелеківське вдсх., Кіровоградська приміська ЗС",48.573236,32.188211
27776,"р. Дністер, 677 км, м.Новодністровськ, 677 км, м.Новодністровськ, мікрорайон ""Промбаза"", скид стічних вод ДКП ""Управління ""Тепловодоканал""",48.575,27.465
38288,"р. Кривий Торець, 0 км, нижче м. Костянтинівка (смт. Олексієво-Дружківка)",48.577833,37.611278
27079,"р. Самара, 142 км, с. Вербки",48.578003,35.892231
27226,"р. Дністер, 708 км, с. Кормань, Дністровське вдсх., пр. берег, безпосередньо в районі насосної станції водозабору",48.57879,27.17489
38162,"р. Кочерга, 7,9 км, м. Павлоград, північно-західна околиця міста, лівий берег",48.580061,35.805325
27048,"р. Дніпро, 462 км, смт. Аули, питний в/з м. Дніпро та м. Кам'янське",48.583744,34.482694
27831,"р. Ждимир, 9 км, с. Вовчий, вище с. Вовчий, Сваявський район, питний в/з м. Свалява,  референційні умови ",48.588486,23.117419
27228,"р. Дністер, 674 км, Дністровське вдсх, н/б'єф, пр. берег, 500 м нижче греблі ГЕС - 1",48.58978,27.45564
27630,"р. Свалявка, 0 км, 2 км вище м. Свалява, питний водозабір",48.590278,23.110278
37970,"р. Турка, 18 км, с. Турка, Коломийський район, вплив стічних вод КП ""Сільський Водник""",48.590528,25.152583
27227,"р. Дністер, 675 км, Дністровське вдсх, в/б'єф, пр. берег, 500 м вище греблі ГЕС - 1",48.59569,27.44543
38282,"р. Казенний Торець, 0 км, вище м. Дружківка",48.599222,37.474778
38495,"р. Кильтень , 14 км, Смолінське ВКГ ОКВП ""Дніпро-Кіровоград"", ДП ""СхідГЗК"" Смолінська шахта",48.604,31.287056
27300,"р. Уж, 32 км, с. Сторожниця, Ужгородський район, кордон з Словаччиною",48.605814,22.213489
27300,"р. Уж, 28 км, с. Сторожниця, кордон з Словаччиною ",48.608756,22.247004
27223,"р. Дністер, 900 км, с. Митків, правий берег, 200 м вище станції першого підйому в/з м. Чернівці",48.61134,26.0233
27207,"р. Кривий Торець, 1 км, Карлівська гребля, техн.в/з",48.616667,37.533333
38399,"р. Мала Піня, 0,2 км, с. Поляна, Мукачівський район, автодорожний міст",48.623236,22.967844
37919,"р. Смотрич, 4 км, с. Панівці , територія Національного природного парку ""Подільські Товтри"", вплив м. Кам'янець-Подільський",48.623694,26.620294
38150,"р. Самара, 25,2 км, м. Новомосковськ, нижче автодорожнього мосту, лівий берег",48.626272,35.27185
38005,"р. Уж, 37 км,  вище м. Ужгород, Ужгородський район, автодорожний міст",48.628392,22.334858
37921,"р. Мукша, 12 км, с. Нова Слобідка, територія Національного природного парку ""Подільські Товтри"", вплив скиду КП ""Міськтепловоденергія"" (м. Кам'янець-Подільський)",48.631353,26.644819
27299,"р. Уж, 35 км, м. Ужгород, дериваційний канал, питний в/з ",48.63215,22.317478
27299,"р. Уж, 40 км, м. Ужгород, питний в/з ",48.632189,22.317511
27117,"р. Інгулець, 483 км, с. Марто-Іванівка",48.633964,33.121696
27222,"р. Дністер, 936 км, м. Заліщики, в/з, прав. берег, 50 м нижче мосту через річку по дорозі Чернівці - Тернопіль",48.63404,25.76609
38160,"р. Мала Тернівка, 5,4 км, с. Морозівське, північно-західніше залізничного переїзду",48.636394,35.885958
27156,"р. Кільтень, 24 км, с. Нововознесенка, Маловисківського р-ну",48.64115,31.236478
27206,"р. Казенний Торець, 55 км, м. Дружковки, нижче впадіння нижче міста технічний в/забір",48.648694,37.516667
38648,"р. Уж, 40 км, автодорожний міст в напрямку с. Оріховиця, Ужгородський район",48.656564,22.368556
38148,"р. Самара, 105 км, с. Кочережки, гідрологічний пост р. Самара, на південно-західній околиці села, на 344 м вище автодорожнього моста",48.659286,35.660133
38463,"р. Південний Буг, 393 км, скид м. Ладижин ТОВ ""Вінницька птахофабрика""",48.661833,29.305
27047,"р. Дніпро, 476 км, м. Верхньодніпровськ, питний в/з",48.662494,34.3625
38503,"р. Інгул, 338 км, верхів'я річки Інгул",48.663722,32.181167
27372,"р. Синюха, 94 км, смт Новоархангельск, Новоархангельське водосховище, питний в/з смт Смоліне",48.669,30.806
27257,"р. Серет, 6 км, с. Касперівці, Касперівське вдсх,, сільгосп. в/з",48.67,25.857
27829,"р. Репинка, 1 км, с. Репинне,  1 км, с. Репинне, Міжгірський район, автодорожний міст",48.6734,23.350064
38487,"р. Сельниця, 33 км, м. Тульчин Тульчинського  району , скид Комунального підприємства «Тульчинводоканал»",48.675,28.9075
27152,"р. Соб, 2 км, с. Дмитренки, Дмитренківське вдсх., н/б'єф, нижче села",48.681667,29.282778
27078,"р. Самара, 269 км, с. Нікольське, кордон Донецької і Харківської обл.",48.682778,36.778231
38373,"р. Уманка, 4 км, м. Умань , КП ""Уманьводоканал""",48.683833,30.351028
38339,"р. Б. Орлова , 0 км, м.Знам'янка, став Петрівський 1-ий",48.691139,32.681278
38298,"р. Мокра Плотва, 0 км, м. Соледар, гирло",48.697861,38.044972
27141,"р. Південний Буг, 400 км, м. Ладижин, Ладижинське вдсх, ",48.705,29.231111
27628,"потік Умножанський, 0 км, 2 км вище смт. Міжгір'я, питний водозабір",48.707778,23.184444
38292,"р. Біленька, 0 км, м. Краматорськ, гирло",48.715222,37.558583
27298,"р. Уж, 54 км, м. Перечин, нижче міста",48.715419,22.43965
37905,"р. Серет, 8 км, с. Монастирок, Касперівське водосховище, Касперівський ландшафтний заказник",48.727944,25.85775
38294,"р. Маячка, 0 км, м. Краматорськ, гирло",48.733056,37.545583
27140,"р. Південний Буг, 413 км, с. Маньківка, вище села, питний в/з м.Ладижин",48.738889,29.089167
27063,"канал Дніпро-Донбас, 0,5 км, с. Шульгівка, після ГВК Дніпро-Донбас",48.738889,34.313889
38361,"р. Удич, 47 км, с. Талалаївка, Уманський район, Христинівське ВУЖКГ",48.744778,29.956333
38178,"р. Кільчень, 64,1 км, с. Олександрівка Перша, гідрологічний пост, південно-західна околиця села, 1,2 км нижче автодорожнього мосту",48.7527,34.963975
27249,"р. Ворона, 34 км, м. Отинія, вплив стоків Надвірнян. НПЗ,лівий берег, 50 м нижче моста по  дорозі Івано-Франківськ - Коломия",48.757306,24.854525
27221,"р. Дністер, 968 км, с. Устечко, (кордон Ів.-Франк. і Чернівецької обл., лівий берег, 50 м нижче мосту по дорозі м.Городенка Ів.-Фр. обл. - смт. Товсте Тернопільської обл.",48.761525,25.614128
38493,"р. Велика Вись, 0 км, у межах смт Ямпіль ",48.7629,30.9811
27205,"р. Казений Торець, 34 км, м.Слов'янськ, вище міста,  Ясногорівська гребля",48.766667,37.566667
27211,"р. Нижня Біленька, 1 км, с.Нижнє, гирло, міста",48.766667,38.616667
27188,"р. Сіверський Донець, 406 км, с.Світличне, паром",48.767528,38.65
38363,"р. Тікич, 3 км, с. Добрянка Тальнівського району",48.770417,30.887639
27116,"р. Інгулець, 502 км, с. Диківка, Диківське водосховище",48.770514,32.813242
38491,"р. Велика Вись, 0 км, нижче м.Новомиргород",48.771278,31.547472
27155,"р. Велика Вись, 95 км, с. Лікареве, Новомиргородського р-ну",48.771614,31.548561
27258,"р. Нічлава, 35 км, м. Борщів, Борщівське вдсх., в/з",48.789,26.017
27258,"р. Нічлава, 37 км, м. Борщів, водозабір господарсько-побутового призначення",48.789194,26.016028
37901,"р. Джурин, 6 км, с. Нирків,  Джуринський водоспад, НПП ""Дністровський каньйон""",48.805694,25.587667
37931,"р. Калюс , 14 км, с. Каскада, вплив скидів ГП ""Водоканал"" та ТОВ ""Діада Д"" (смт. Нова Ушиця)",48.811914,27.288647
27259,"р. Циганська, 22 км, с. Мушкатівка, Мушкатівське вдсх,",48.813,26.106
38403,"р. Уж, 66 км, с. Дубриничі, Ужгородський район, вище впадіння р. Люта, автодорожний міст",48.816158,22.492064
27594,"р. Сухий Торець , 1 км, гирло",48.818467,37.584158
38332,"р. Інгулець, 0 км, с. Веселий Кут",48.820111,32.578528
38062,"р.Мокрий Ташлик, 0 км, Орнітологічний заказник ""Редьчине"" на р.Мокрий Ташлик",48.828583,31.931972
27247,"р. Бистриця Солотвинська, 18 км, с. Скобичівка, питний в/з Ів.-Франк., 10 м нижче мосту",48.836142,24.542472
38387,"р. Збруч, 83 км, смт Скала-Подільська, правий берег, біля мосту, вплив стічних вод смт Скала-Подільська",48.838944,26.219528
38471,"р. Бистриця Надвірнянська, 16 км, с. Берeзівка, питний в/з м.Івано-Франківськ",48.8399,24.696839
27859,"р. Славська, 1 км, смт Славське, вплив стічних вод підприємств-водокористувачів",48.841944,23.4475
38443,"р. Сорищі, 0 км, м. Слов'янськ, гирло",48.8428,37.639742
27600,"р. Казенний Торець, 21 км, м. Слов'янськ, нижче скиду підприємств м. Краматорськ та м. Слов'янськ",48.845244,37.620014
27246,"р. Бистриця Надвірнянська, 16 км, с. Черніів, питний в/з Ів.Франківська, 10 м нижче мосту",48.848947,24.697106
27302,"р. Убля, 1 км, с. М.Березний, гирло",48.851411,22.445419
27261,"р. Збруч, 85 км, смт. Скала Подільськ, техн. в/з",48.852,26.218
37925,"р. Тернава , 37 км, с. Панасівка,  біля мосту, вплив скиду КП ""Міськводоканал"" (м. Дунаївці)",48.857375,26.832458
38606,"р. Опір, 39 км, смт. Славське, 39 км, смт. Славське, вплив стоків Славського КВКП",48.865639,23.466983
27602,"р. Сіверський Донець, 500 км, с. Крива Лука",48.877964,37.9069
38419,"р.Студениця, 44 км, с. Дем'янківці, біля мосту, вплив скидів стічних вод ДП ""Дунаєвецький комбінат хлібопродуктів""",48.883292,26.914867
27203,"р. Казенний Торець, 1 км, с. Райгородок, гирло",48.883333,37.733333
27182,"р. Сіверський Донець, 510 км, Райстародубівська гребля, водозабір Слов'янської ТЕС",48.883333,37.781464
37899,"р. Тлумачик, 21 км, с. Локітка, вплив стічних вод КП ""Тлумачкомунсервіс""",48.883972,25.017944
38252,"р. Сіверський Донець, 0 км, нижче впадіння р. Казенний Торець",48.886803,37.781458
27187,"р. Сіверський Донець, 428 км, м. Лисичанська, нижче міста",48.887858,38.483333
38365,"р. Гірський Тікич, 21 км, м. Тальне,  Тальнівский район, КП ""Водоканал"" Тальнівської міської ради",48.888056,30.735944
27210,"р. Верхня Біленька, 1 км,  м. Лисичанськ, гирло, міста, міст ",48.888128,38.480908
38369,"р. Гнилий Тікич, 21 км, м. Катеринопіль, КП ""Катеринопільське селищне житлово-комунальне господарство"" Катеринопільської селищної ради",48.896444,30.974167
38560,"р. Сухий Омельник, 0 км, смт Онуфріївка , за межами смт Онуфріївка Олександрійського р-ну",48.8965,33.441083
27181,"р. Сіверський Донець, 522 км, м.Слов""янськ, Райгородська гребля, питний водозабір  у канал ""Сіверський Донець-Донбас""",48.9,37.75
38296,"р. Сухий Торець , 0 км, м. Барвінкове",48.906389,37.023028
38142,"р. Прядівка, 8,3 км, с. Лисківка, нижче автомобільного мосту, північна околиця села",48.907078,34.567447
27183,"р. Сіверський Донець, 485 км,  с.Дронівка, 500 м вище впадіння р. Бахмут",48.913011,38.016667
27624,"р. Уж, 85 км, вище смт. Великий Березний, питний водозабір",48.913889,22.461111
38324,"р. Ворона, 55 км, смт Тисмениця, вплив ПАТ ""Нафтохімік Прикарпаття""",48.916217,24.847311
27301,"р. Улічка, 1 км, с. Забрідь, гирло",48.918967,22.4571
27209,"р. Бахмут, 2 км, с. Дронівка, гирло, міста,міст",48.924506,38.033333
27184,"р. Сіверський Донець, 483 км,  с.Дронівка, 800 м нижче впадіння р. Бахмут, кордон Донец. і Луганської обл.",48.933333,38.05
27185,"р. Сіверський Донець, 469 км, с. Білогорівка, питний водозабір Західної фільтрувальної станції",48.941808,38.236603
27592,"р. Сіверський Донець, 527 км, водозабір Слов'янського РВУ КП ""Компанія Вода Донбасу""",48.943011,37.692483
27077,"р. Оріль, 86,8 км, смт Царичанка , гідрологічний пост р. Оріль, північно-східна околиця селища, на 0,57 км нижче автодорожнього моста",48.947,34.497
27077,"р. Оріль, 81 км, смт Царичанка ",48.94815,34.494442
27590,"р. Сіверський Донець, 540 км, водозабір КП ""Слов'янськводоканал""",48.948164,37.637131
37897,"р. Павелча, 17 км, с.Рибне, лісовий заказник ""Чорний Ліс""",48.951806,24.61375
38544,"р. Дністер, 1083 км, м. Нижнів, у районі підруслового питного водозабору м. Тлумач",48.954806,25.116444
38320,"р.Дуба, 1 км,  смт Рожнятів , вплив стічних вод КП ""Рожнятівводгосп""",48.960833,24.174444
27243,"р. Чечва, 16 км, смт. Рожнятів, Чечвенське вдсх.",48.963886,24.161811
27620,"р. Свіча, 57 км, с. Княжолука, питний водозабір м. Долина, Долинське ВУВКГ",48.965008,23.907069
27608,"р. Борова, 1 км, гирло",48.966017,38.40545
37915,"р. Жванчик, 76 км, с. Кугаївці, територія Національного природного парку ""Подільські Товтри"", вплив скиду КП ""Комунсервіс"" (смт Чемерівці) та ПАТ ""Оболонь"" (смт Чемерівці)",48.970094,26.360542
38558,"р. Тясмин, 0 км, смт Олександрівка, КП ""Оберіг"" смт Олександрівка",48.970333,32.243944
37911,"р. Серет, 70 км, с. Угринь, після скиду стічних вод КП ""Чортківське ВУВКГ""",48.973611,25.818889
27046,"р. Дніпро, 539 км, с. Карпівка, Карпівська ЗС, Кременчуцького р-ну",48.976658,33.784789
27065,"канал Дніпро-Донбас, 170 км, с.Орілька, Орільське водосховище, шлюзовий попуск",48.980169,36.034678
38411,"р. Павельче, 10,2 км, с.Павлівка, калуське шосе, автодорожний міст, вплив сміттєзвалища м.Івано-Франківськ",48.98025,24.64
27065,"канал Дніпро-Донбас, 170 км, с.Орілька, Орільське водосховище, шлюзовий водовипуск",48.980556,36.033333
27186,"р. Сіверський Донець, 444 км, м.Рубіжне, вище, міст на дорозі  ""м.Рубіжне - м.Новодружеск""",48.983333,38.35
27241,"р. Саджава, 9 км, м. Долина,  м.Долина Івано-Франківської області, вплив скидів стічних вод Долинського ВУВКГ",48.994042,23.943189
38371,"р. Шполка, 43 км, м. Ватутіне, КВП ""Водоканал""",48.998833,31.031194
27045,"р. Дніпро, 550 км, м. Горішні Плавні (м.Комсомольськ), питний в/з міста",49.005178,33.585653
37929,"р. Калюс , 43 км, смт Віньківці, біля мосту, вплив скидів КП ""Віньковецький комунсервіс"" та ТОВ ""Віньковецький сирзавод""",49.015825,27.231461
27772,"р. Дністер, 1100 км, с.Побережжя, Тисменицький р-н, 1100 км, с.Побережжя, Тисменицький р-н Івано-Франківської області, вплив скидів КП ""Галичводоканал"", КП ""Івано-Франківськводоекотехпром"", ТОВ ""Барва""",49.0221,24.853328
27586,"р. Сіверський Донець, 562 км, с. Богородичне",49.022647,37.512722
27604,"р. Красна, 3 км, гирло",49.023367,38.251297
27622,"р. Серет, 81 км, питний водозабір м. Чортків",49.023489,25.786725
27240,"р. Свіча, 54 км, с. Гошів, лв.берег, 40 м вище мосту дороги Долина - Болехів, п/в м. Долина",49.024233,23.889472
27245,"р. Луква, 23 км, с. Боднарів, лівий берег, 100 м нижче мосту по дорозі Івано-Франківськ - Калуш",49.025258,24.546075
27242,"р. Лімниця, 30 км, с. Вістова, питний в/з м. Калуш",49.027667,24.463722
27064,"канал Дніпро-Донбас, 109 км, м. Перещепино, міст, Перещепинський водозабір",49.029874,35.378052
27044,"р. Дніпро, 582 км, с. Подорожнє, Придніпровська (Чапаївська) ЗС, Світловодського р-ну",49.030183,33.127478
27036,"р. Тясмин, 120 км, м.Кам'янка, (Кам'янське водосховище), техн в/з міста",49.033583,32.101472
38485,"р. Баран, 17 км, м. Жмеринка",49.033778,28.176194
27066,"канал Дніпро-Донбас, 181 км, р.Орілька, міст, 1,5 км від гирла,",49.034622,36.103749
38136,"р. Орелька, 15 км, с.Червона Долина",49.034639,36.103833
27139,"р. Південний Буг, 537 км, смт. Сутиски, Сутиське вдсх., н/б'єф",49.036667,28.408889
27036,"р. Тясмин, 120 км, м.Кам'янка, техн в/з міста",49.037,32.075
27434,"р. Дністер, 1090 км, с.Довге, правий берег, кордон Івано-Франківської і Тернопільської областей",49.038578,24.922828
27248,"р. Бистриця, 2 км, с. Єзупіль, гирло, вплив скиду о/с м.Ів-Франк, 20 м нижче мосту",49.039053,24.794189
38407,"р. Сівка, 39,5 км, м. Калуш, автодорожний міст по вул. Богдана Хмельницького, вплив Домбровського кар'єру",49.047806,24.330528
27019,"р. Дніпро, 580 км, питний в/з міста Світловодськ, (Кременчуцьке водосховище) правий берег",49.050889,33.151656
27252,"р. Стрипа, 34 км, м. Бучач, водозабір господарсько-побутового призначення",49.054306,25.404056
27252,"р. Стрипа, 34 км, м. Бучач, в/з",49.062,25.401
27042,"р. Дніпро, 615 км, с. Адамівка, Адамівська ЗС, Чигиринського р-ну",49.063728,32.805047
38316,"р. Гериня , 11 км, м.Болехів, вул. Олени Степанівни, міст через річку ",49.069167,23.883611
38409,"р.Кропивник, 12 км, с. Мостище, автодорожний міст, вплив Домбровського карєру",49.071306,24.342306
38375,"р. Дністер, 1111 км, с.Козина, Івано-Франківський р-н, вплив стічних вод КП ""Галичводоканал""",49.079861,24.758333
27180,"р. Сіверський Донець, 573 км, с.Єремівка, кордон Донецької  і Харківської  областей",49.083314,37.45
38060,"р. Тясмин, 9 км, м. Чигирин, КП ""Чигирин""",49.085417,32.689749
27151,"р. Рів, 1 км, с. Могилівка, вище села",49.100278,28.301667
38550,"р. Ушиця , 60 км, с. Адамівка, біля мосту",49.101667,27.060572
27239,"р. Свіча, 39 км, с. Міжріччя, кордон Ів.-Франківської і Львівської обл.,лівий берег,перпендикулярно до річки від сільської церкви.",49.103242,23.955264
27588,"р. Оскіл, 9 км, гирло",49.103806,37.40965
37949,"р. Гнилий Тікич, 41 км, м. Звенигородка, питний в/з  КП «Водопостачання та водовідведення» Звенигородської міської ради",49.103889,30.944722
27238,"р. Стрий, 78 км, с. Верхнє Синєвидне, лівий берег, підрусловий в/з м.Львів,150 м нижче мосту, дорога Стрий - Сколе",49.1072,23.606822
37893,"р. Опір, 0,2 км, смт. Верхнє Синьовидне, під мостом дорозі Стрий - Сколе, вплив стоків м. Сколе",49.109258,23.594217
38483,"р. Рів, 0 км, у межах с. Демидівка Жмеринського р-н, 0,2 км нижче греблі",49.1113,28.2543
27068,"канал Дніпро-Донбас, 215 км, верхній б'єф Краснопавлівського водосховища, скид у р. Сіверський Дінець",49.113823,36.500952
38516,"р. Гірський Тікич, 118 км, с. Зарубінці, Монастирищенський район,  (Шуляцьке болото, смарагдова мережа)",49.114,29.987667
27069,"канал Дніпро-Донбас, 216 км, нижній б'єф   Краснопавлівського вдсх.",49.114144,36.507786
27018,"р. Дніпро, 580 км, с. Власівка, (Кременчуцьке водосховище) лівий берег, Власівський водозабір КП "" Кременчукводоканал"" Кременчуцької міської ради",49.114333,33.235999
27070,"канал Дніпро-Донбас, 256 км, с. Грушеваха",49.1258,36.9035
38274,"р. Берека, 0 км, с. Грушеваха, гирло",49.125806,36.9035
27220,"р. Дністер, 1117 км, м. Галич, правий берег, р-н рятувальної станції, 300 м нижче мосту по дорозі Івано-Франківськ - Львів",49.126003,24.733294
27774,"р. Дністер, 0 км, м.Галич, Галицький національний природний парк, м.Галич",49.126389,24.729444
27018,"р. Дніпро, 580 км, с.Власівка, лівий берег, питний в/з м.Кременчук",49.131444,33.244892
38104,"р. Оріль, 0 км, с. Нехвороща Новосанжарського району",49.1328,34.7137
37917,"р. Смотрич, 115 км, с. Лісогірка, вплив скиду КП ""Городоккомунсервіс"" (м. Городок)",49.135214,26.561583
27067,"канал Дніпро-Донбас, 214 км, м. Харків, Краснопавлівське водосховище, в/з міста",49.13893,36.463015
38084,"р. Ворскла, 0 км, м. Кобеляки, 4 км вище впадіння р. Кобелячка",49.144,34.211
27253,"р. Сівка, 11 км, смт. Войнилів, вплив стоків Калуського пром вузла, лів. берег, 80 м вище мосту по дорозі Калуш-Бурштин",49.1458,24.512728
38604,"р. Стрий, 159 км, м. Турка, 159 км, м. Турка, вплив несанкціонованих стоків м. Турка",49.157644,23.055183
38393,"р. Яблунька, 0,3 км, м. Турка, вплив стоків м. Турка",49.158547,23.049522
37927,"р. Ушиця , 92 км, с. Соколівка , нижче греблі ставка, вплив скидів КП ""Комунальник-2011"" (смт Ярмолинці) та ГО ""Вікторія"" (смт Ярмолинці)",49.158797,26.848606
27177,"р. Сіверський Донець, 630 км, с.Червоний Шахтар, нижче впадіння каналу Дніпро-Донбас",49.166667,37.054414
27179,"р. Сіверський Донець, 600 км, м.Ізюм. , нижче м.Ізюм. ",49.166667,37.3
27200,"р. Оскіл, 11 км, Оскільське вдсх,  н/б'єф",49.175789,37.472597
27219,"р. Дністер, 1130 км, с. Перлівці, Галицького району, вплив стоків Калуського промвузла, правий берег",49.176356,24.61
27176,"р. Сіверський Донець, 640 км, с.Петровське, вище каналу Дніпро-Донбас, міст ",49.177003,36.926694
27254,"р. Сівка, 2 км, с. Сівка-Войнилівська, гирло, вплив стоків Калуського пром. вузла, 40 м нижче мосту по дорозі Галич - Залуква - Войнилів",49.188342,24.541503
27138,"р. Південний Буг, 569,5 км, 500 м нижче скиду ВОКВП ВКГ ""Вінницяводоканал""   (1,5 км нижче греблі Сабарівського вдсх.)",49.190556,28.443611
27138,"р. Південний Буг, 570 км, смт Сабарів, (Сутиське водосховище), 500 м нижче  скиду ВОКВП  ВКП ""Вінницяводоканал"" ",49.190694,28.443417
27178,"р. Сіверський Донець, 610 км, м.Ізюм, вище м.Ізюм, міст автостради ""Харків - Ростов""",49.193322,37.271953
37892,"р. Стрий, 117 км, с. Новий Кропивник, в межах НПП ""Сколівські Бескиди"" (Смарагдова мережа)",49.196383,23.306289
27244,"р. Гнила Липа, 22 км, смт. Бурштин, Бурштинське вдсх.",49.202781,24.673494
27218,"р. Дністер, 1136 км, с. Сівка Войнилівська,  вище впадіння р.Сівка, вплив Домбровського карєру",49.203122,24.548442
27861,"р. Бережниця, 35 км, с.Бережниця, вплив стічних вод підприємств-водокористувачів м.Моршин",49.205,23.921667
38532,"р. Сіверський Донець, 0 км, м. Ізюм",49.206778,37.289567
38140,"р. Вошива, 0 км, с. Кобзівка",49.218583,35.565833
38367,"р. Литвинка, 10 км, м. Жашків, 10 км, м. Жашків, ТОВ ""Жашківська кінно-спортивншкола""",49.2188,30.1231
38441,"р. Сухий Ізюмець, 0 км, м. Ізюм, гирло",49.222197,37.277014
38395,"р. Східниця, 4 км, смт Східниця, вплив смт Східниця",49.228942,23.332128
38070,"р. Псел, 39 км, с. Запсілля Кременчуцького району в створі в/поста,  0,7 км нижче впадіння р. Омельник ",49.229,33.569
27217,"р. Дністер, 1159 км, с. Журавно, вплив стоків м. Ходорів, 150 м више мосту по дорозі м. Калуш - м. Ходорів через с. Журавно",49.260442,24.290708
27061,"р. Ворскла, 63 км, м. Кобеляки, техн в/з міста",49.260772,34.281719
38328,"р. Коропець, 51 км, м.Підгайці, нижчке скиду стічних вод КП ""Підгаці-Водоканал""",49.2625,25.141722
27616,"р. Солониця, 23 км, м. Трускавець, водозабір ТзОВ ""Трускавецьводоканал""",49.265222,23.504511
27137,"р. Південний Буг, 582 км, м. Вінниця, Сабарівське вдсх,  питний в/з міста, вище міста",49.273056,28.471389
38602,"потік Лочений, 4 км, м. Борислав, вплив несанкціонованих стоків м. Борислав",49.283089,23.449792
27855,"р. Стрий, 39 км, м.Стрий (с.Добряни), вплив стічних вод ВУВКГ м.Стрий",49.287547,23.915189
27043,"р. Дніпро, 594 км, с. Пронозівка Глобинського р-ну, (Кременчуцьке водосховище) Градижська ЗС",49.292036,32.987867
27857,"р. Стрий, 6 км,  м.Жидачів, 6 км, м.Жидачів, вплив стоків целюлозно-паперового комбінату",49.296328,24.131778
27769,"р. Дністер, 1316 км, с.Стрілки, с.Стрілки, Старосамбірський р-н",49.328158,22.977819
38036,"р. Вільшанка, 0 км, у межах с. Мліїв",49.3394,31.5145
38389,"р. Солониця, 0 км, с. Раневичі, вплив ПрАТ Стебницьке ГХП “Полімінерал”",49.34,23.561972
27236,"р. Тисмениця, 21 км, м. Дрогобич, вплив стоків Дрогобиц. пром. вузла, м. Трускавець, м. Борислав, під мостом по дорозі Львів - Дрогобич",49.354897,23.565642
27851,"р. Тисмениця, 21 км, м.Дрогобич, 21 км, м.Дрогобич, вплив стоків м.Трускавець, м.Борислав та Дрогобицького промислового вузла, 1 км нижче м.Дрогобич",49.354928,23.565569
38139,"р. Берестова, 0 км, м. Красноград",49.356778,35.460833
38272,"р. Чепель, 0 км, с. Гусарівка",49.358083,36.8055
38322,"р. Гнила Липа, 38 км, с.Бабухів, вплив стоків КП ""Рогатинводоканал""",49.3625,24.615278
27237,"р. Стрий, 6 км, м. Жидачів, лівий берег, вплив стоків целюлозо-паперового комбінату під мостом по дорозі м. Львів - м. Жидачів",49.381458,24.131889
27175,"р. Сіверський Донець, 712 км, с.Червона Гусарівка, нижче м. Балаклея, в/з Балакліївської ЗС",49.383333,36.883333
38556,"Парезовиця, 0 км, м. Стеблів, у межах  м. Стеблів",49.396194,31.083444
38459,"р. Південний Буг, 743 км, с. Копистин Хмельницького р-ну, 1 км нижче м. Хмельницький",49.396789,27.108108
27027,"р. Рось, 64 км,  м.Корсунь-Шевченківський, питний в/з                                               ",49.4,31.236
27026,"р. Рось, 84 км, м.Стеблів, в/бєф водосховища ГЕС",49.408,31.108
38461,"р. Південний Буг, 681 км, с. Щедрове, Летичівський р-н, Щедрівське водосховище",49.412119,27.629853
27614,"р. Луг, 18 км, м. Ходорів, питний водозабір ",49.419186,24.315597
27136,"р. Південний Буг, 607 км, с. Гущинці, нижче села , питний водозабір м.Калинівка",49.421111,28.3825
38106,"р. Орчик, 0 км, м. Карлівка, 500 м нижче  скиду Карлівської дільниці КП Полтавської обласної ради «Полтававодоканал»",49.421761,35.138778
38530,"р. Сіверський Донець, 0 км, м. Балаклія",49.423825,36.839161
38086,"р. Ворскла, 109 км, с. Старі Санжари Новосанжарського району, (Кунцівське водосховище), 500 м нижче скиду каналу після Супрунівських очисних споруд КП Полтавської обласної ради «Полтававодоканал»",49.426,34.504
27017,"р. Дніпро, 597 км, с.Святилівка, в/з рибгоспу",49.427931,32.860031
27251,"р. Коропець, 71 км, смт. Козіве, Козівське вдсх, с/г в/з",49.431,25.154
27131,"р. Південний Буг, 755 км, м. Хмельницький , Хмельницьке вдсх.",49.431794,26.978928
27133,"р. Південний Буг, 711 км,  смт. Меджибіж, Меджибіжське вдсх.",49.434092,27.412419
38326,"р. Золота Липа, 77 км, м.Бережани, нижче скиду стічних вод Бережанського МКП ""Добробут""",49.4365,24.950889
38477,"р. Бужок, 0,2 км, смт Меджибіж",49.438036,27.417625
37885,"р. Дністер, 1300 км, м. Старий Самбір, вплив стоків Старого Самбора",49.441389,23.006111
38106,"р. Орчик, 0 км, м. Карлівка, 500 м нижче  скиду Карлівської дільниці КП Полтавської обласної ради «Полтававодоканал»",49.444697,35.150283
38270,"р. Балаклійка, 0 км, м. Балаклія, гирло",49.445694,36.85125
38481,"р.Жердь, 16 км, м. Калинівка, скид",49.4466,28.5304
27250,"р. Золота Липа, 74 км, м. Бережани, сільгосп. в/з",49.452,24.946
38457,"р. Південний Буг, 755 км, 0,7 км вище м. Хмельницький",49.454283,26.928078
27025,"р. Рось, 94 км, с.Виграївські Дачі",49.457633,31.047142
27024,"р. Рось, 98 км, с.Москаленки, кордон Київської і Черкаської обл.",49.467933,31.033636
27021,"р. Рось, 230 км, м.Богуслав, гідропост кордон Київської і Черкаської обл.",49.473572,31.032419
37909,"р. Серет, 155 км, смт Микулинці, після скиду стічних вод ПМП ""Комунекосервіс""",49.475711,25.604139
37913,"р.Бовенець, 3 км, с. Поляни, біля мосту, вплив скиду Волочиське КП ВКГ ""Джерело"" (м. Волочиськ)",49.478139,26.219511
37889,"р. Стрв'яж, 83 км, с.Терло, під мостом по дорозі Хирів - Смільниця, транскордонний створ",49.480131,22.737731
38554,"р. Рось, 0 км, м. Погребище, нижче скиду м. Погребище, Вінницька обл.",49.483353,29.269561
27216,"р. Дністер, 1191 км, с. Розвадів, вплив скиду стоків Дрогоб. пром. вузла, лівий берег, 200 м вище  мосту по дорозі м.Львів-м.Стрий",49.493894,23.968183
27020,"р. Рось, 278 км, с.Кошів, кордон з Вінницькою обл.",49.495067,29.580639
27215,"р. Дністер, 1278 км, м.Самбір, міста, верхів'я р. Дністер,  під мостом по дорозі м.Дрогобич",49.5,23.216667
37907,"р. Серет, 178 км, смт. Велика Березовиця, після випуску стічних вод КП ""Тернопільводоканал""",49.502722,25.602444
27130,"р. Південний Буг, 773 км, смт. Чорний Острів, Мар'янівське вдсх.",49.508172,26.759347
27260,"р. Збруч, 137 км, м. Підволочиськ, в/з",49.511,26.145
27435,"р. Гнила Липа, 50 км, с.Липівка, ліва притока р.Дністер, правий берег, 50 метрів нижче мосту, по дорозі м.Рогатин - м.Львів, кордон Львівської та Івано-Франківської областей",49.512372,24.571269
38385,"р. Гнезна, 22 км, смт В. Бірки, правий берег, біля мосту, вплив стічних вод смт. В.Бірки",49.512917,25.749361
27606,"р. Хорина, 1 км, ділянка від с. Павлівка до с.Травневе",49.515881,38.369225
38479,"р. Десна, 0 км, с. Самгородок Козятинський р-н, Гідрологічний заказник місцевого значення «Опустя»",49.520861,28.849472
27849,"р. Стрв'яж, 1,5 км, м.Хирів, 1,5 км вище м.Хирів",49.528217,22.858764
27568,"р. Рось, 102 км, с.Тептіївка, питний водозабір м.Миронівка",49.530686,30.963228
27260,"р. Збруч, 214 км, м. Підволочиськ, водозабір господарсько-побутового призначення",49.533722,26.160583
27362,"р. Рось, 134 км, с.Дибинці, Богуславський район, Дибиницьке водосховище",49.535,30.774
38417,"р.Грабарка, 11 км, с. Маначин, біля мосту",49.539311,26.344861
27023,"р. Рось, 118 км, м.Богуслав, питний в/з міста",49.545608,30.867422
38566,"р.Говтва, 34 км, м. Решетилівка, 34 км, м. Решетилівка, нижче скиду Решетилівського комунального підприємства «Водоканал» Решетилівської територіальної громади.",49.546242,34.067547
27016,"р. Дніпро, 678 км, c. Сокирне, (Кременчуцьке водосховище) питний в/з м. Черкаси",49.551,31.9
27255,"р. Серет, 180 км, м. Тернопіль, Тернопільське вдсх., питний в/з",49.553,25.579
27135,"р. Південний Буг, 652 км, м. Хмільник, питний в/з, вище міста",49.556389,27.913056
38082,"р. Ворскла, 144 км, 1,5 км нижче м. Полтава, (Нижньомлинське водосховище), 0,7 км нижче впадіння  р. Коломак, міст дороги Полтава-Харків",49.56,34.594
38038,"р. Золотоношка, 18 км, с. Благодатне, Золотоніський район",49.57575,32.077333
27060,"р. Ворскла, 142 км, м.Полтава, техн в/з міста",49.581489,34.589617
38102,"р. Коломак, 3 км, с. Макухівка Полтавського району, 500 м нижче скиду Затуринських очисних споруд КП  Полтавської обласної ради «Полтававодоканал»",49.596944,34.620556
27256,"р. Серет, 211 км, с. Горішньо-Івачів, Горишньо-Івачівське вдсх., питний в/з м.Тернопіль",49.599,25.554
27235,"р. Стрв'яж, 6 км, с. Луки, вплив неочищених стоків м.Самбір, під мостом по дорозі Львів-Самбір",49.611436,23.389658
27235,"р. Стрв'яж, 6 км, с. Луки, вплив неочищених стоків м.Самбір, під мостом по дорозі Львів-Самбір",49.611556,23.389628
27174,"р. Сіверський Донець, 793 км, с.Задонецьке",49.637125,36.341969
38032,"р. Росава, 3 км, с. Гамарня, Канівський район",49.641944,31.423028
27028,"р. Рось, 12 км, с. Хмільна, вплив р. Росава",49.6443,31.504739
27256,"р. Серет, 211 км, с. Горішньо-Івачів, Горішньо-Івачівське вдсх, питний в/з м.Тернопіль",49.651667,25.513222
38268,"р. Княжна, 0 км, с. Бражники",49.654694,35.880194
37887,"р. Дністер, 939 км, с. Кострижівка, скид стічних вод Кострижівське УЖКГ",49.655389,25.719722
27843,"р.Вяр, 26 км, с.Підмостичі, 26 км, кордон з Республікою Польща, с.Підмостичі Старосамбірського р-ну, під  мостом дороги Т1418",49.656247,22.792047
27038,"р. Дніпро, 690 км, с. Домантово, Домантівська ЗС, Черкаського р-ну",49.659911,31.910625
27201,"р. Оскіл, 112 км, м. Куп'янськ, нижче міста, міст",49.663889,37.625556
38040,"р. Ірклій , 22 км, смт Чорнобай, (Чорнобаївське водосховище), Чорнобаївське ВУЖКГ",49.6715,32.328471
26950,"р. Случ, 406 км, с.Чернелівка, Красилівського р-ну, питний в/з м. Хмельницький",49.673178,26.825783
38266,"р. Мож, 0 км, м. Зміїв, гирло",49.683972,36.356444
27029,"р. Роставиця, 71 км, м.Ружин, 2 км нижче міста",49.721258,29.248589
38052,"р. Сула, 52 км, с. Тарасівка Оржицький район, Сулинський заповідник",49.722644,32.730303
38008,"р. Дніпро, 0,5 км, нижче м. Канів (гідромет), (Кременчуцьке водосховище)",49.7363,31.5135
27364,"р. Рось, 185 км, с.Бирюки, Рокитнянський район",49.739,30.287
38020,"р. Гнилоп'ять, 79 км,  с. Медведівка Козятинського р-ну, (Медведівське водосховище)",49.746944,28.674167
38391,"р. Щерек, 42 км, с. Наварія, вплив стоків приватних господарств",49.750989,23.936658
38564,"р.Хорол, 91 км, с. Вишняки, 91 км, с. Вишняки Лубенського району, після скидів підприємств",49.759456,33.623
27022,"р. Рось, 218 км, с.Глибочка, с.Глибочка,  питний в/з м.Біла Церква",49.76005,30.037989
26981,"р. Дніпро, 739 км, м. Канів, н/б Канівської ГЕС, 2 км нижче греблі",49.761,31.471
27057,"р. Хорол, 102 км, с. Вишняки, техн в/з села",49.7613,33.327444
38381,"р. Верещиця, 36 км, м. Городок, вплив стоків м. Городок ",49.765097,23.652328
27234,"р. Зубра, 30 км, с. Зубра, Пустомитівський р-н (біля кільцевої дороги)",49.767006,24.051158
27853,"р. Зубра, 30 км, с.Зубра, 30 км, с.Зубра, Пустомитівський р-н Львівської області",49.768,24.052
38219,"р. Случ, 391 км, с. Красносілка Старокостянтинівського р-ну, нижче м. Старокостянтинів на 0,5 км",49.7723,27.265808
37895,"р. Саджавка, 21,4 км, с. Росільна, заповідне урочище ""Міжгір'я""",49.773194,24.353833
27054,"р. Псел, 172 км, смт. В. Багачка, техн в/з селища",49.781622,33.7408
38264,"р. Мож, 0 км, вище м. Мерефа",49.78675,35.9075
27173,"р. Сіверський Донець, 813 км, с.Есхар, нижче гирла р.Уди",49.789347,36.595947
38302,"р. Марунька, 8 км, м. Винники, під мостом окружної дороги м. Львова, вплив стоків м. Винники",49.793256,24.14315
37903,"р. Серет, 190 км, с.Залізці, Серетський гідрологічний заказник",49.796111,25.376111
38439,"р. Леб'яжа , 0 км, с. Леб'яже, гирло",49.802878,36.90665
27195,"р. Уди, 3 км, с.Єсхар, ехн.в/з ГРЕС-2, міст",49.808464,36.6
37883,"р. Вишня, 47 км,  м. Мостиська, питний водозабір МКП ""Водоканал"" м. Мостиська",49.812647,23.206106
38383,"р. Зимна Вода , 8 км, с. Зимна Вода, вплив стоків міжнародного аеропорту ""Львів"" та приватних господарств",49.818975,23.903058
38262,"р. Рогань, 0 км, гирло",49.819139,36.445111
38221,"р. Случ, 354 км, с. Коржівка Старокостянтинівського р-ну, межа області",49.8343,27.602514
38534,"р.Великий Бурлук, 0 км, гирло, с. Базалівка",49.834472,37.001222
38445,"р. Золочівка, 12 км, с. Хильчиці, вплив стоків м. Золочева",49.837308,24.854711
27030,"р. Роставиця, 41 км, с.Строків, кордон Київської і Житомирської обл.""",49.846396,29.598214
27194,"р. Уди, 41 км,  с. Хорошево, міст",49.860522,36.232153
27339,"р. Полтва, 30 км, с.Кам’янопіль, Пустомитівський р-н, кільцева дорога біля шлюзу",49.87005,24.166031
27191,"р. Тетлега, 1 км, с.Кочеток,  гирло",49.871844,36.735767
27343,"р. Вишня, 37 км, с. Чернево, кордон з Польщею, під мостом дороги м. Мостиська - с. Краковець",49.8723,23.083372
27584,"р. Сіверський Донець, 0 км, с. Кочеток, водозабір КП ""Харківводоканал""",49.874431,36.750058
26966,"р. Гнилоп'ять, 59 км, питний в/з міста м. Бердичів,  (Бердичівське водосховище)",49.881761,28.574325
27172,"р. Сіверський Донець, 872 км,  с. Печеніги",49.884053,36.980706
26942,"р. Горинь, 602 км, м. Ланівці Лановецького р-ну, лівий берег, 50 м нижче мосту",49.88775,26.064694
38447,"р. Малехівка, 6 км, с. Малехів, під мостом по дорозі Львів - Жовква, вплив дренажних вод полігону твердих побутових відходів ЛКП ""Збиранка""",49.892089,24.058828
26941,"р. Горинь, 639 км, м. Вишнівець, техн.в/з міста",49.893,25.737
26942,"р. Горинь, 602 км, смт. Ланівці, 602 км, техн.в/з селища",49.895,26.097
38622,"р. Яричівка, 13 км, с. Великі Підліски, вплив стоків смт. Новий Яричів ",49.905633,24.340325
38050,"р. Сула, 96 км, м. Лубни, 500 м нижче скиду комунального підприємства ""Лубни-водоканал"" Лубенської міської ради",49.935953,32.9816
38568,"р. Ворскла, 210 км, с. Міські Млини, 210 км, с. Міські Млини Полтавського району, район інтенсивного добування нафти та газу",49.936044,34.658422
27196,"р. Лопань, 1 км, м. Харків , гирло",49.940886,36.207358
38080,"р. Хорол, 140 км, м. Миргород, 500 м нижче скиду комунального підприємства ""Миргородводоканал""",49.944681,33.576856
27344,"р. Шкло, 66 км, с. Краковець, кордон з Польщею, під мостом дороги м. Львів - с. Краковець",49.952606,23.192978
38050,"р. Сула, 96 км, м. Лубни, 500 м нижче скиду комунального підприємства ""Лубни-водоканал"" Лубенської міської ради",49.952783,32.995789
38250,"р. Полква, 2 км, с. Жемелинці Білогірського р-ну, біля мосту",49.972119,26.404008
27835,"р. Західний Буг, 781 км, м. Буськ, 781 км, м. Буськ, Львівська область",49.972264,24.597856
38078,"р. Хорол, 144 км, м. Миргород, міст по вулиці Київський",49.986,33.623
38260,"р. Немишля, 0 км, м. Харків, гирло",49.987806,36.276389
27198,"р. Харків, 1 км, м. Харків, гирло, міст ",49.9882,36.233333
38022,"р. Гнилоп'ять, 41 км, с.Швайківка Бердичівський район, нижче скиду ВУВКГ",49.994972,28.50925
27202,"р. Оскіл, 176 км, с. Тополі, міст, кордон з Росією",50.0038,37.909353
38540,"р. Харків, 0 км, м. Харків (Ісаєвський міст)",50.006703,36.292986
27034,"р. Сула, 106 км, м.Лубни, технічний в/з міста",50.007444,33.013775
27193,"р. Уди, 79 км, смт. Пересічне, міст",50.012772,35.976369
38256,"р. Уди, 0 км, вище м. Харкова",50.012778,35.976361
26980,"р. Дніпро, 795 км, м. Переяслав-Хмельницький, вище гирла р.Трубіж",50.028,31.397
38014,"р.Трубіж, 0 км, нижче м. Переяслав-Хмельницький (гідромет)",50.0437,31.4465
38538,"р. Лопань, 0 км, м. Харків (кільцева дорога)",50.04565,36.154769
26954,"р. Хомора, 52 км, м. Полонне, питний в/з міста",50.082869,27.488553
27345,"р. Завадівка, 12 км, с. Грушів, Яворівський р-н (кордон з Республікою Польща)",50.0867,23.317294
38453,"р. Рибна (р. Блех), 1 км, с. Грушів, природний заповідник ""Розточчя"" (Смарагдова мережа)",50.098075,23.318286
38010,"р. Унава, 27 км, м. Фастів",50.1047,29.9434
38451,"р. Свиня, 23 км, с. В'язова, вплив стоків м. Жовква",50.105767,24.001064
27330,"р. Західний Буг, 704 км, м. Кам'янка Бузька",50.111286,24.349356
26979,"р. Дніпро, 825 км, нижче м. Українка, (Канівське водосховище)",50.119808,30.801622
38258,"р. Муром, 0 км, гирло",50.145972,36.419
38254,"р. Хотомля, 0 км, с. Новоолександрівка",50.146694,37.252361
38116,"р. Мерла, 1 км, м. Богодухів, нижче міста",50.149,35.4655
38449,"р. Мощанка, 22 км, с. Середкевичі, природний заповідника ""Розточчя"" (Смарагдова мережа)",50.152269,23.543086
27015,"р. Стугна, 7,5 км, м.Обухів",50.158506,30.665217
38012,"р. Стугна, 35 км, м. Васильків",50.1598,30.336
38114,"р. Мерла, 1 км, м. Богодухів, вище міста",50.164,35.5857
26940,"р. Іква, 85 км, м.Кременець, техн в/з ",50.169,25.719
38238,"р. Іква, 89 км, с. Сапанів Кременецького р-ну, правий берег, 600 м нижче скиду КП ""Міськводгосп""",50.170306,25.719833
27370,"р. Іква, 87 км, с.Андруга, Білокриницька с/р, Кременецький район",50.175907,25.723469
38592,"р. Острівка, 2 км, смт Лопатин, 2 км, смт Лопатин, вплив стоків КП Лопатинської селищної ради, під мостом через річку по дорозі Лопатин - Станіславчик",50.185308,24.886436
38596,"р.Хомора, 0,5 км, с. Понінка, 500 м нижче випуску стічних вод КП «Понінківська картонно-паперова фабрика»",50.190667,27.587278
38594,"р.Хомора, 0,5 км, с.Понінка, 500 м вище випуску стічних вод КП «Понінківська картонно-паперова фабрика»",50.192067,27.57375
38130,"р. Хомора, 7 км, смт Понінка, Полонського р-ну, межа області",50.193747,27.596456
26963,"р. Тетерів, 259 км, м.Житомир, питний в/з міста",50.220117,28.551319
38018,"р. Тетерів, 247 км, нижче м. Житомир, нижче скиду  КП ""Житомирводоканал""",50.224472,28.713444
27837,"р. Західний Буг, 723 км, с. Старий Добротвір , 723 км, с. Старий Добротвір,  Кам'янка-Бузький район",50.232975,24.378489
38058,"р. Удай, 94 км, м. Пирятин, 500 м нижче скиду Пирятинських госпрозрахункових очисних споруд   ",50.239522,32.530977
38624,"р. Рата, 59 км, м. Рава-Руська, вплив стоків м. Рава-Руська",50.239833,23.672186
27839,"р. Київський потік, 11 км, с.Нестаничі, 11 км, с.Нестаничі Радехівський р-н",50.240844,24.488336
38034,"р. Супій, 0 км, нижче м. Яготин",50.2415,31.7575
27340,"р. Рата, 22 км, смт. Великі Мости, в/з",50.246394,24.13765
27331,"р. Західний Буг, 689 км, Добротвірське вдсх, н/б'єф, в/з",50.248408,24.349292
38048,"р. Сула, 160 км, с. Сенча Лохвицького району, міст через дорогу Миргород-Сенча, район інтенсивного добування нафти та газу",50.257,33.351999
26945,"р. Горинь, 478 км, м. Славута, зона впливу ХАЕС",50.282019,26.846494
27190,"р. Вовча, 1 км, с. Гатіще, гирло",50.283333,36.874183
27199,"р. Харків, 54 км, с. Стрілечє, міст, кордон з Росією",50.2878,36.3755
38024,"р.Ів’янка, 1 км, с.Харитонівка, Коростишівський район, влив ВУВКГ",50.288139,29.024167
38536,"р. Уди, 0 км, с. Золочів",50.293442,35.967894
38112,"р. Охтирка, 12 км, м. Охтирка, дамба ставу",50.299583,34.943389
38110,"р. Охтирка, 1 км, м. Охтирка, міст через річку",50.3115,34.848111
27171,"р. Сіверський Донець, 944 км, с. Огірцеве, кордон з  Росією, міст",50.312636,36.831503
26978,"р. Дніпро, 854,5 км, 500 м нижче БСА, (Канівське водосховище)",50.3168,30.633358
26943,"р. Горинь, 491 км, смт. Нетішин, вище ХАЕС",50.320081,26.660278
26976,"р. Дніпро, 855,5 км, 500 м вище БСА, (Канівське водосховище)",50.322792,30.628642
26977,"р. Дніпро, 855 км, Скидний канал БСА, (Канівське водосховище)",50.325722,30.647628
27841,"р. Рата, 3,5 км, с. Межиріччя, 3,5 км, с. Межиріччя Сокальський район",50.332469,24.216358
27197,"р. Лопань, 69 км, с. Казача Лопань,  міст кордон з РФ",50.346422,36.183333
38068,"р. Псел, 312 км, (Малобудищанське водосховище), м. Гадяч,  500 м нижче скиду  Гадяцького виробничого управління житлово - комунального  господарства",50.358,34.009
38066,"р. Псел, 320 км, 1 км вище м. Гадяч, (Малобудищанське водосховище),  2 км вище впадіння р. Грунь  (гідромет)",50.377,34.025
38552,"р. Либідь, 0 км, м.Київ, гирло, м. Київ",50.382019,30.577747
27059,"р. Ворскла, 273 км, с. Клементове, а/дор. міст, вище техн. в/з м.Охтирка",50.385414,34.925867
27033,"р. Сула, 181 км, м.Заводське, техн. в/з Лохвицького цукрозаводу",50.386844,33.38945
27033,"р. Сула, 181 км, м. Заводське Лохвицького району, технічний водозабір ВАТ ""Лохвицького цукрового заводу""",50.38685,33.389483
26933,"р. Стир, 411 км, с. Вербень, кордон  Рівненської і Волинської обл.",50.386908,25.206097
27189,"р. Вовча, 62 км,  с. Землянки, міст, кордон з Росією",50.392661,37.441703
26975,"р. Дніпро, 867 км, м. Київ, Південний Ковш, техн в/з ТЕЦ-5",50.393947,30.575969
27192,"р. Уди, 134 км, с. Окоп, міст, кордон з Росією",50.421969,36.133333
27058,"р. Ворскла, 348 км, смт. Велика Писарівка, а/д міст",50.438556,35.480478
26974,"р. Дніпро, 870 км, м.Київ, Гідропарк, лівий берег",50.442847,30.568525
27053,"р. Псел, 350 км, с. Камінне, а/д міст, кордон Сумської і Полтавської обл.",50.454067,34.301658
27056,"р. Хорол, 248 км, с. Лучки, Липоводолинського р-ну, кордон Сумської і Полтавської обл.",50.467678,33.735267
38108,"р. Боромля, 8 км, м. Тростянець, міст через річку",50.467889,34.968417
27333,"р. Західний Буг, 637 км, м. Сокаль",50.485078,24.272656
26964,"р. Тетерів, 175 км, м. Радомишль, 1 км нижче міста, вплив ВУЖКГ ",50.502333,29.262639
26964,"р. Тетерів, 175 км, м. Радомишль, 1 км нижче міста вплив ВУЖКГ",50.502678,29.252831
27062,"р. Ворсклиця, 51 км, с. Пожня, Великописарівського р-ну,  а/д міст",50.504836,35.332994
26988,"р. Десна, 3 км, м.Київ, Деснянський водозабір",50.551,30.569
26971,"р. Ірпінь, 28 км, смт Гостомель, вплив вод р. Буча",50.5516,30.285117
38074,"р. Ольшанка, 20 км, с. Рябушки Лебединського р-ну, міст через річку",50.559556,34.572917
26921,"р. Дніпро, 897 км, м.Вишгород, н/б Київської ГЕС, питний водозабір м.Київ",50.560714,30.491367
26951,"р. Случ, 203 км, м. Новоград-Волинський, питний в/з",50.574561,27.650556
27032,"р. Сула, 221 км, с.Чеберяки, а/д міст",50.580314,33.289442
38076,"р. Ольшанка, 8 км,  м. Лебедин, міст через річку",50.581972,34.454611
27332,"р. Західний Буг, 632 км, с. Старгород, Сокальський р-н (кордон Львівської та Волинської областей) ",50.591944,24.213
38056,"р. Удай, 1 км, нижче м. Прилуки ",50.603194,32.398333
38056,"р. Удай, 1 км, нижче м. Прилуки ",50.604222,32.398389
38054,"р. Удай, 0,8 км, вище м. Прилуки ",50.607889,32.375138
27576,"р. Десна, 20 км, КП ""Броваритепловодоенергія""",50.616111,30.706111
27055,"р. Хорол, 280 км, с. Панасовка, вище техн в/з м.Липова Долина, а/д міст",50.617389,33.820475
27334,"р. Західний Буг, 631 км, с. Литовеж, міст автодороги Нововолинськ-Червоноград, кордон з Республікою Польща",50.618044,24.187986
27035,"р. Удай, 233 км, м. Прилуки, 2 км нижче міста",50.620092,32.438868
27052,"р. Псел, 405 км, с. Бишкінь, а/д міст",50.636806,34.611825
26949,"р. Устя, 24 км, м. Рівне, 2 км нижче міста, вплив ВУЖКГ",50.651267,26.246128
38046,"р. Сула, 266 км, с. Шумське Роменського р-ну, міст через річку",50.658639,33.363639
26967,"р. Ірша, 93 км, смт. Нова Борова, Іршанське вдсх. в/бєф, питний в/з селища",50.697422,28.613625
38132,"р. Десна, 35 км, с. Літки",50.7023,30.7269
26969,"р. Возня, 8 км, с. Рудня Городищенська, питний в/забір м. Малин",50.7092,29.286833
26973,"р. Кізка, 5 км, с.Демидів, вплив зворотних вод ""Агромарс""",50.733508,30.318292
26934,"р. Стир, 308 км, м.Луцьк",50.734794,25.364917
27031,"р. Сула, 259 км,  м.Ромни, техн в/з міста, а/д міст",50.738686,33.499136
26972,"р. Ірпінь, 0,1 км, с.Козаровичі, гирло",50.743942,30.366742
26889,"р. Дніпро, 922 км, с.Козаровичі, нижче (Київське водосховище)",50.759458,30.381558
26968,"р. Ірша, 31 км, м. Малин, питний в/з міста",50.764089,29.222356
38072,"р. Сироватка, 45 км, смт Краснопілля, нижче скиду ТОВ ""Теплоенерго"" ",50.789472,35.235833
26952,"р. Случ, 155 км, с. Устя, кордон Рівненської і Житомирської обл-й",50.800106,27.201139
38092,"р. Стир, 289 км, с. Княгининок , а/міст Жидичин",50.805389,25.285722
27335,"р. Західний Буг, 583,5 км, с. Амбуків, 500 м нижче впадіння р. Хучва, кордон з Польщею",50.810753,23.968728
26970,"р. Здвиж, 21 км, с. Феневичі",50.818594,30.101083
38042,"р. Сула, 347 км, с. Вільшана Недригайлівського р-ну, міст через річку",50.826861,34.019167
38696,"р. Десна, 307 км, с. Жукин",50.827717,30.774808
38096,"р. Путилівка , 26 км, смт Цумань, а/міст ",50.827722,25.883472
27051,"р. Псел, 447 км, с.Старе Село Сумського р-ну, (Низівське водосховище), міст через річку (нижче м. Суми)",50.829778,34.824778
27051,"р. Псел, 444 км, с. Червоне, нижче м.Суми, а/д міст",50.832,34.822
38044,"р. Сула, 326 км, с. Курмани Недригайлівського р-ну, міст через річку",50.841,33.796972
26987,"р. Десна, 55 км, с. Крехаїв, Козелецького р-ну (кордон Чернігівської і Київської обл.)",50.843503,30.785319
27341,"р. Луга, 6 км, с. П'ятидні",50.868336,24.218364
27341,"р. Луга, 6 км, с. П'ятидні, під мостом по дорозі Володимир-Волинський - Устилуг, вплив м. Володимир-Волинський",50.868556,24.21825
27336,"р. Західний Буг, 569 км, м. Устилуг,, 500 м нижче впадіння р.Устилуг, кордон з Польщею",50.869453,24.14285
27014,"р. Остер, 30 км, м. Козелець, 1 км нижче міста",50.922108,31.097414
26960,"р. Уж, 172 км, м. Коростень, питний в/з",50.940514,28.626456
38694,"р. Десна, 0 км, с. Остер",50.952667,30.85073
27050,"р. Псел, 480 км, с. В.Чернетчина, а/д міст вище техн. в/з м. Суми",50.964675,34.917958
26965,"р. Тетерів, 10 км, с. Оране, вплив зворотних та с/г вод м. Іванкова",51.022,30.078
38090,"р. Стохід, 142 км, с. Малинівка Рожищенського  р-ну",51.026,25.054831
27049,"р. Псел, 528 км, Краснопільського району, а/д міст",51.026308,35.229767
38128,"р. Вир, 24 км, м. Білопілля, місту через річку",51.160722,34.282306
27342,"р. Ягодинка, 2 км, нижче оз.Ягодинське",51.180983,23.855456
38692,"р. Десна, 0 км, с. Максим ",51.190335,30.941078
26931,"р. Турія, 125 км, м.Ковель, Ковельське водосховище",51.200556,24.6921
27004,"р. Єзуч, 30 км, с. В'язове, тех.в/з м.Конотоп, а/д міст",51.2165,33.391064
38100,"р. Уборть, 185 км, нижче м. Олевськ",51.2338,27.6718
26998,"р. Сейм, 230 км, с. Піски, Буринський р-н, паром кордон з Росією",51.234058,34.099636
26999,"р. Сейм, 182 км, с.Чумакове, вище техн. в/з м.Путівль, а/д міст",51.234197,33.908364
38094,"р. Стир, 175 км, с.  Маюничі,  а/міст на трасі Ковель-Київ ",51.249794,25.947417
38088,"р. Турія, 114 км, с. Бахів Ковельського р-ну",51.253278,24.754806
26961,"р. Уж, 15 км, с.Черевач, техн в/з м.Чорнобиль",51.253706,30.222619
26929,"р. Прип'ять, 26 км, м.Чорнобиль",51.274722,30.243544
27005,"р. Єзуч, 9 км, с. Сарнавщіна, нижче м.Конотоп",51.277286,33.208944
26935,"р. Стир, 183 км, м. Вараш (Кузнєцовськ), водозабір РАЕС",51.312822,25.883014
26937,"р. Стир, 152 км, зливові стічні води РАЕС",51.315753,25.873481
27000,"р. Сейм, 66 км, с. Мельня, авто/дор. міст, кордон Сумської і Чернігівської обл.",51.332522,33.080416
38665,"р. Сейм, 0 км, Озаричі, Озаричі",51.337722,33.212249
27002,"р. Сейм, 42 км, м. Батурин, Бахмацького р-ну",51.339597,32.908183
38688,"р. Десна, 0 км, с. Кладьківка",51.349346,31.957646
27337,"р. Західний Буг, 468 км, с. Забужжя, кордон з Республікою Польща",51.378292,23.684542
26936,"р. Стир, 152 км, с.Сопачів, нижче  РАЕС",51.388872,25.879917
26986,"р. Десна, 200 км, м. Чернігів, технічний в/з міста",51.394244,31.2712
38126,"р. Сейм, 0 км, м. Мутин, 2,0 км вище міста",51.4141,33.4715
27013,"р. Білоус, 0 км, м. Чернігів",51.418389,31.253333
38686,"р. Десна, 0 км, с. Максаки",51.419268,32.186121
26957,"р. Уборть, 120 км, с. Рудня Хочинська, кордон з Білоруссю",51.437225,27.897381
38667,"р. Десна, 0 км, с. Велике Устя, а/м",51.45125,32.523055
38600,"р. Десна, 0 км, с. Мале Устя, с. Мале Устя",51.451972,32.52261
38669,"р. Сейм, 0 км, с. Долинське",51.452186,32.599806
26985,"р. Десна, 350 км, смт. Макошино, Менського р-ну технічний в/з смт. Макошино",51.452544,32.348008
26926,"р. Прип'ять, 60 км, с. Довляди, кордон з Білоруссю",51.475711,29.946869
27338,"р. Західний Буг, 385 км, с. Світязь, оз. Світязь, Шацький район,  вплив с. Світязь",51.478694,23.843167
26986,"р. Десна, 200 км, м. Чернігів, у межах міста ",51.481778,31.309333
27338,"р. Західний Буг, 385 км, с. Світязь, оз. Світязь, Шацький район",51.482444,23.845289
27012,"р. Стрижень, 0,1 км, м. Чернігів",51.492489,31.314539
38134,"р. Мена, 0 км, м. Мена, нижче міста",51.507342,32.18743
38134,"р. Мена, 0 км, м. Мена, нижче міста",51.507342,32.187431
38690,"р. Десна, 0 км, с. Боромики  ",51.520794,31.608921
26984,"р. Десна, 390 км, с. Спаське, Сосницького р-ну нижче Смоленської АЕС",51.550158,32.626108
38598,"р. Снов, 0 км, с. Снов’янка, с. Снов’янка",51.558361,31.548667
26953,"р. Случ, 4 км, с.Колки",51.597286,26.640075
26955,"р. Ствига, 95 км, с. Познань, кордон з Білоруссю",51.602792,27.478933
27003,"р. Клевень, 72 км, с.Заруцьке, кордон з Росією",51.654039,34.029519
26923,"р. Прип'ять, 702 км, м. Ратне",51.673031,24.533364
26930,"р. Вижівка, 0,5 км, с. Якушів",51.685069,24.592669
26946,"р. Горинь, 67 км, с. Висоцьк, кордон з Білоруссю",51.707414,26.660258
26956,"р. Льва, 100 км, с. Переброди, кордон з Білоруссю",51.727239,26.981306
26932,"р. Стохід, 19 км, м. Любешів, північно-східна околиця",51.768164,25.524961
26932,"р. Стохід, 19 км, смт. Любешів, північно-східна околиця",51.768222,25.524917
38098,"р. Прип'ять, 684 км, Річиця - Піски Річицькі, а/міст між селами",51.769703,24.666192
26939,"р. Стир, 48 км, смт. Зарічне, кордон з Білоруссю",51.829736,26.149092
26997,"р. Шостка, 25 км, с. Гамаліївка, 25 км, с.Гамаліївка,вище техн.в/з м.Шостка ",51.846289,33.5698
26924,"р. Прип'ять, 616 км, с. Люб'язь",51.848611,25.473056
26924,"р. Прип'ять, 616 км, с. Люб'язь",51.848625,25.472956
26925,"р. Прип'ять, 570 км, с. Сенчиці, кордон з Білоруссю",51.882947,25.860703
38124,"р. Шостка, 6 км, с. Богданівка Шосткинського р-ну, лівий берег, місту через річку",51.908028,33.335721
26853,"р. Дніпро, 1116 км, с. Кам'янка, нижче села, Ріпкинського р-ну (кордон з Білоруссю)",51.911397,30.821614
26996,"р. Івотка, 20 км, с. Івот, а/д міст",51.969356,33.523531
26995,"р. Івотка, 41 км, м. Ямпіль, вище міста,гідротехн.спор.",51.970461,33.806425
27008,"р. Снов, 120 км, с. Гірськ, Щорського р-ну створ, злиття р. Цата з р. Снов (кордон з РФ)",52.019847,31.860439
26922,"р. Сож, 32 км, с. Ст. Яриловичі, Ріпкинського р-ну  (кордон з Білоруссю)",52.046428,30.945367
27011,"р. Цата, 7 км, с. Клюси, Щорського р-ну (кордон з РФ)",52.075244,31.94055
27007,"р. Снов, 155 км, с. Блешня, Семенівського р-ну (кордон з РФ)",52.111275,32.298444
27010,"р. Ревна, 52 км,  с. Леонівка, Семенівського р-ну (кордон з РФ)",52.163386,32.622211
26990,"р. Бобрик, 9 км, смт. Середина-Буда, нижче очисних споруд, а/д міст",52.191983,34.0113
26989,"р. Бобрик, 13 км, смт. Середина-Буда, 13 км, , а/д міст,  кордон з Росією",52.195619,34.055256
27009,"р. Ірпа, 2 км, с. Городок, Семенівського р-ну (кордон з РФ)",52.263597,32.383628
27006,"р. Снов, 182 км, с. Тимоновичі, Семенівського р-ну (кордон з РФ)",52.286597,32.427942
26983,"р. Десна, 569 км, с. Камінь, Новгород-Сіверського р-ну (кордон з РФ) створ злиття р. Судость з  р. Десна",52.286669,33.367956
26992,"р. Знобовка, 17 км, с. Зноб-Трубчевськ, а/д міст, кордон з Росією",52.30395,33.567492
26993,"р. Знобовка, 7 км, с. Нововасилівка, кордон з Росією, вихід МК осуш. сист., скиди стіч. вод",52.335631,33.443617
26991,"р. Судость, 3 км, с. Грем'яч, Н.-Сіверського р-ну (кордон з РФ)",52.339517,33.304907
26982,"р. Десна, 573 км, с. Мурав′ї, Новгород-Сіверського р-ну",52.346925,33.397872
26994,"руч. Знаменка, 5 км, смт. Білі Березки, нижче міста, кордон з РФ",52.355,33.5
27822,"р. Дунай, 89,9 км, м. Ізмаїл, 89,9 км р. Дунай",,45.335833
27824,"р. Дунай, 32 км, м. Кілія, 32,0 км р. Дунай",,45.444722
